{
  "status": "ok",
  "data": [
    {
      "lat": 46.586916666666,
      "lon": 0.35858333333316,
      "uid": 5074,
      "aqi": "56",
      "station": {
        "name": "Poitiers Couronn., PoitouCharentes, France",
        "time": "2023-06-07T03:00:00+09:00"
      }
    },
    {
      "lat": -21.974,
      "lon": -46.8,
      "uid": -146980,
      "aqi": "10",
      "station": {
        "name": "Rua Dom Pedro II",
        "time": "2023-06-07T04:02:33+09:00"
      }
    },
    {
      "lat": -37.2,
      "lon": 174.86,
      "uid": 9302,
      "aqi": "1",
      "station": {
        "name": "Patumahoe, Auckland",
        "time": "2023-06-07T03:00:00+09:00"
      }
    },
    {
      "lat": 46.0872,
      "lon": 85.6931,
      "uid": 4300,
      "aqi": "26",
      "station": {
        "name": "Wuerhequ trade buidling, Karamay (\u514b\u62c9\u739b\u4f9d\u4e4c\u5c14\u79be\u533a\u5546\u8d38\u697c)",
        "time": "2023-06-07T03:00:00+09:00"
      }
    },
    {
      "lat": 6.4404830932617,
      "lon": 3.4068150520325,
      "uid": 13450,
      "aqi": "32",
      "station": {
        "name": "Lagos US Embassy, Nigeria",
        "time": "2023-06-07T02:00:00+09:00"
      }
    },
    {
      "lat": 53.7333333,
      "lon": 7.4166667,
      "uid": 6204,
      "aqi": "37",
      "station": {
        "name": "Ostfriesischeinseln, Germany",
        "time": "2023-06-07T03:00:00+09:00"
      }
    },
    {
      "lat": 45.434333,
      "lon": -75.676,
      "uid": 23,
      "aqi": "190",
      "station": {
        "name": "Ottawa Downtown, Ontario, Canada",
        "time": "2023-06-07T04:00:00+09:00"
      }
    },
    {
      "lat": 45.05,
      "lon": 39.014,
      "uid": -216556,
      "aqi": "16",
      "station": {
        "name": "2-\u0439 \u043f\u0440\u043e\u0435\u0437\u0434 \u041a\u0440\u0430\u0441\u043d\u044b\u0445 \u0417\u043e\u0440\u044c",
        "time": "2023-06-07T04:02:49+09:00"
      }
    },
    {
      "lat": 13.0300674,
      "lon": 77.5579104,
      "uid": -398479,
      "aqi": "95",
      "station": {
        "name": "Mathikare",
        "time": "2023-06-07T02:00:00+09:00"
      }
    },
    {
      "lat": 23.5404352,
      "lon": 87.2892225,
      "uid": 9148,
      "aqi": "137",
      "station": {
        "name": "Sidhu Kanhu Indoor Stadium, Durgapur, India",
        "time": "2023-06-07T03:30:00+09:00"
      }
    },
    {
      "lat": 53.1660833,
      "lon": 9.9189944,
      "uid": 6216,
      "aqi": "47",
      "station": {
        "name": "L\u00fcneburgerheide, Germany",
        "time": "2023-06-07T02:00:00+09:00"
      }
    },
    {
      "lat": 32.090457,
      "lon": -81.130378,
      "uid": 3920,
      "aqi": "62",
      "station": {
        "name": "Lathrop, Georgia, USA",
        "time": "2023-06-07T01:00:00+09:00"
      }
    },
    {
      "lat": 41.6175,
      "lon": -87.1992,
      "uid": 7504,
      "aqi": "124",
      "station": {
        "name": "Ogden Dunes, Indiana, USA",
        "time": "2023-06-07T01:00:00+09:00"
      }
    },
    {
      "lat": 50.449945,
      "lon": 30.016305,
      "uid": -223270,
      "aqi": "82",
      "station": {
        "name": "Sadivnytske Tovarystvo \"Mekhanik\"",
        "time": "2023-06-07T04:03:33+09:00"
      }
    },
    {
      "lat": 45.728525,
      "lon": 21.312139,
      "uid": -114604,
      "aqi": "78",
      "station": {
        "name": "Strada Bolero",
        "time": "2023-06-07T04:03:15+09:00"
      }
    },
    {
      "lat": 50.670030555555,
      "lon": 3.076561052228,
      "uid": 8613,
      "aqi": "68",
      "station": {
        "name": "Marcq-en-Baroeul, Nord-Pas-de-Calais, France",
        "time": "2023-06-07T01:00:00+09:00"
      }
    },
    {
      "lat": -0.221393,
      "lon": -78.514005,
      "uid": 6944,
      "aqi": "81",
      "station": {
        "name": "Centro, Quito, Ecuador",
        "time": "2023-06-07T02:00:00+09:00"
      }
    },
    {
      "lat": 43.5354166,
      "lon": -5.6677534,
      "uid": 6699,
      "aqi": "80",
      "station": {
        "name": "Constituci\u00f3n, Asturias, Spain",
        "time": "2023-06-07T02:00:00+09:00"
      }
    },
    {
      "lat": 53.593611,
      "lon": -116.392778,
      "uid": 5485,
      "aqi": "18",
      "station": {
        "name": "Edson, Alberta, Canada",
        "time": "2023-06-07T03:00:00+09:00"
      }
    },
    {
      "lat": 53.362,
      "lon": 58.948,
      "uid": -154171,
      "aqi": "54",
      "station": {
        "name": "\u0443\u043b\u0438\u0446\u0430 \u0422\u0440\u0443\u0434\u0430",
        "time": "2023-06-07T04:03:13+09:00"
      }
    },
    {
      "lat": 53.866,
      "lon": 30.298,
      "uid": -194599,
      "aqi": "128",
      "station": {
        "name": "5-\u0439 \u0412\u0438\u043b\u044c\u0447\u0438\u0446\u043a\u0438\u0439 \u043f\u0435\u0440\u0435\u0443\u043b\u043e\u043a",
        "time": "2023-06-07T04:01:39+09:00"
      }
    },
    {
      "lat": -16.507343,
      "lon": -68.13978,
      "uid": -124645,
      "aqi": "7",
      "station": {
        "name": "Alto San Pedro",
        "time": "2023-06-07T04:00:32+09:00"
      }
    },
    {
      "lat": 22.73681667,
      "lon": 121.12183611,
      "uid": 14646,
      "aqi": "13",
      "station": {
        "name": "Hua-Tung/Taitung County/Fengli, Taiwan",
        "time": "2023-06-07T03:00:00+09:00"
      }
    },
    {
      "lat": 34.00585,
      "lon": 71.53775,
      "uid": 11791,
      "aqi": "162",
      "station": {
        "name": "Peshawar US Consulate, Pakistan",
        "time": "2023-06-07T03:00:00+09:00"
      }
    },
    {
      "lat": 32.6011,
      "lon": -97.09922,
      "uid": -210814,
      "aqi": "73",
      "station": {
        "name": "KMANSTX125",
        "time": "2023-06-07T03:56:12+09:00"
      }
    },
    {
      "lat": -2.172331,
      "lon": -79.83036,
      "uid": -244267,
      "aqi": "48",
      "station": {
        "name": "5 de junio",
        "time": "2023-06-07T04:01:57+09:00"
      }
    },
    {
      "lat": 14.07375,
      "lon": -87.19862,
      "uid": -44689,
      "aqi": "53",
      "station": {
        "name": "TGU MIRAFLORES HONDURAS STEM FOUNDATION 2",
        "time": "2023-06-07T04:01:47+09:00"
      }
    },
    {
      "lat": 36.794167,
      "lon": 121.150556,
      "uid": 10282,
      "aqi": "109",
      "station": {
        "name": "Haiyang Environmental Protection Bureau, Haiyang City (\u6d77\u9633\u5e02\u6d77\u9633\u73af\u4fdd\u5c40)",
        "time": "2023-06-07T03:00:00+09:00"
      }
    },
    {
      "lat": 42.079722222222,
      "lon": -5.4488888888889,
      "uid": 14201,
      "aqi": "58",
      "station": {
        "name": "Valderas, Le\u00f3n, Spain",
        "time": "2023-06-07T01:00:00+09:00"
      }
    },
    {
      "lat": 44.817398,
      "lon": -68.772762,
      "uid": 10183,
      "aqi": "13",
      "station": {
        "name": "Bangor MSS, Maine, USA",
        "time": "2023-06-07T03:00:00+09:00"
      }
    },
    {
      "lat": 52.288,
      "lon": 77.007,
      "uid": -231718,
      "aqi": "-",
      "station": {
        "name": "\u0428\u043a\u043e\u043b\u0430 \u211641",
        "time": "2023-06-07T03:59:57+09:00"
      }
    },
    {
      "lat": -28.787027,
      "lon": 32.021848,
      "uid": 13273,
      "aqi": "38",
      "station": {
        "name": "Brackenham - RBCAA, King Cetshwayo, South Africa",
        "time": "2023-06-07T02:00:00+09:00"
      }
    },
    {
      "lat": 26.987634,
      "lon": 94.636574,
      "uid": 14696,
      "aqi": "100",
      "station": {
        "name": "Girls College, Sivasagar, India",
        "time": "2023-06-07T03:30:00+09:00"
      }
    },
    {
      "lat": 52.389028,
      "lon": 12.848167,
      "uid": -110419,
      "aqi": "78",
      "station": {
        "name": "Neue Dorfstra\u00dfe",
        "time": "2023-06-07T03:54:26+09:00"
      }
    },
    {
      "lat": -32.27159,
      "lon": 150.8859,
      "uid": 13793,
      "aqi": "41",
      "station": {
        "name": "Muswellbrook Muswellbrook",
        "time": "2023-06-07T02:00:00+09:00"
      }
    },
    {
      "lat": 45.1206885,
      "lon": 141.1981589,
      "uid": 3731,
      "aqi": "34",
      "station": {
        "name": "Senhoshi, Hokkaido Prefecture, Japan (\u56fd\u8a2d\u5229\u5c3b\u9178\u6027\u96e8\u5229\u5c3b\u90e1\u5229\u5c3b\u753a)",
        "time": "2023-06-07T03:00:00+09:00"
      }
    },
    {
      "lat": 41.302637194351,
      "lon": -111.98647559149,
      "uid": 12866,
      "aqi": "44",
      "station": {
        "name": "Harrisville, Weber, Utah",
        "time": "2023-06-07T03:00:00+09:00"
      }
    },
    {
      "lat": 7.884746,
      "lon": -76.635689,
      "uid": -376687,
      "aqi": "50",
      "station": {
        "name": "Waira S29 Apartado 6d48e4",
        "time": "2023-06-07T04:04:02+09:00"
      }
    },
    {
      "lat": 38.8516,
      "lon": 105.724,
      "uid": 7317,
      "aqi": "95",
      "station": {
        "name": "EPA New Building, Alxa Meng (\u963f\u62c9\u5584\u76df\u73af\u4fdd\u5c40\u65b0\u697c)",
        "time": "2023-06-07T03:00:00+09:00"
      }
    },
    {
      "lat": 40.20992315441,
      "lon": 28.962808331699,
      "uid": 13920,
      "aqi": "80",
      "station": {
        "name": "Nil\u00fcfer, Turkey",
        "time": "2023-06-07T04:00:00+09:00"
      }
    },
    {
      "lat": 31.162833,
      "lon": 108.387222,
      "uid": 9239,
      "aqi": "50",
      "station": {
        "name": "Ankang, Chongqing (\u91cd\u5e86\u5b89\u5eb7)",
        "time": "2023-06-07T03:00:00+09:00"
      }
    },
    {
      "lat": 17.6599188,
      "lon": 75.9063906,
      "uid": 8729,
      "aqi": "95",
      "station": {
        "name": "Solapur, Solapur, India",
        "time": "2023-06-07T03:30:00+09:00"
      }
    },
    {
      "lat": 44.670378,
      "lon": 10.9623,
      "uid": 11826,
      "aqi": "42",
      "station": {
        "name": "Tagliati, Emilia Romagna, Italy",
        "time": "2023-06-06T06:00:00+09:00"
      }
    },
    {
      "lat": 50.040711,
      "lon": 22.004364,
      "uid": 13042,
      "aqi": "58",
      "station": {
        "name": "Rzesz\u00f3w-Pi\u0142sudskiego-WIOS, Poland",
        "time": "2023-06-07T03:00:00+09:00"
      }
    },
    {
      "lat": 43.278,
      "lon": 68.203,
      "uid": -365563,
      "aqi": "103",
      "station": {
        "name": "\u0422\u0443\u0440\u043a\u0435\u0441\u0442\u0430\u043d 3",
        "time": "2023-06-07T04:00:00+09:00"
      }
    },
    {
      "lat": 2.453,
      "lon": -76.632004,
      "uid": -373552,
      "aqi": "21",
      "station": {
        "name": "AireCiudadano Popayan MO fecd6e",
        "time": "2023-06-07T04:04:04+09:00"
      }
    },
    {
      "lat": -28.7732192,
      "lon": 114.6096326,
      "uid": 6436,
      "aqi": "5",
      "station": {
        "name": "Geraldton",
        "time": "2023-06-07T03:00:00+09:00"
      }
    },
    {
      "lat": 4.758891,
      "lon": 115.013667,
      "uid": 2611,
      "aqi": "42",
      "station": {
        "name": "Limbang, Sarawak, Malaysia",
        "time": "2023-06-07T03:00:00+09:00"
      }
    },
    {
      "lat": 46.142317,
      "lon": -60.172575,
      "uid": 8859,
      "aqi": "12",
      "station": {
        "name": "Sydney, Nova Scotia, Canada",
        "time": "2023-06-07T03:00:00+09:00"
      }
    },
    {
      "lat": 19.645324,
      "lon": 77.6345232,
      "uid": 8682,
      "aqi": "128",
      "station": {
        "name": "Chandrapur, Chandrapur, India",
        "time": "2023-06-07T03:30:00+09:00"
      }
    },
    {
      "lat": 26.724722222222,
      "lon": -80.666388888889,
      "uid": 6303,
      "aqi": "33",
      "station": {
        "name": "Belle Glade, Palm Beach, Florida, USA",
        "time": "2023-06-07T04:00:00+09:00"
      }
    },
    {
      "lat": 46.5618541,
      "lon": 17.2478463,
      "uid": -376099,
      "aqi": "84",
      "station": {
        "name": "Szokedencs",
        "time": "2023-06-07T04:03:30+09:00"
      }
    },
    {
      "lat": 54.516667,
      "lon": -1.358547,
      "uid": 3214,
      "aqi": "139",
      "station": {
        "name": "Stockton-on-Tees Eaglescliffe, United Kingdom",
        "time": "2023-06-07T02:00:00+09:00"
      }
    },
    {
      "lat": 6.726802,
      "lon": -1.657588,
      "uid": -398860,
      "aqi": "78",
      "station": {
        "name": "County Hospital, Abrepo, Kumasi [Ghana AQ Project]",
        "time": "2023-06-07T02:00:00+09:00"
      }
    },
    {
      "lat": 31.0325454,
      "lon": 76.5623046,
      "uid": 11310,
      "aqi": "76",
      "station": {
        "name": "Ratanpura, Rupnagar, India",
        "time": "2023-06-07T02:30:00+09:00"
      }
    },
    {
      "lat": 38.993229999475,
      "lon": 1.30894,
      "uid": 8270,
      "aqi": "38",
      "station": {
        "name": "sant antoni de portmany, Baleares, Spain",
        "time": "2023-06-07T01:00:00+09:00"
      }
    },
    {
      "lat": 52.498500000107,
      "lon": -6.5707499997314,
      "uid": 13382,
      "aqi": "43",
      "station": {
        "name": "Enniscorthy, Co. Wexford, Ireland",
        "time": "2023-06-07T02:00:00+09:00"
      }
    },
    {
      "lat": 30.199652,
      "lon": 115.03852,
      "uid": 3653,
      "aqi": "89",
      "station": {
        "name": "Huangshi (\u9ec4\u77f3)",
        "time": "2023-06-07T03:00:00+09:00"
      }
    },
    {
      "lat": 16.23674,
      "lon": -61.534101,
      "uid": 11831,
      "aqi": "59",
      "station": {
        "name": "Station Ptp Victoire, Guadeloupe, France",
        "time": "2023-06-07T03:00:00+09:00"
      }
    },
    {
      "lat": 27.1725,
      "lon": -80.240555555556,
      "uid": 6297,
      "aqi": "43",
      "station": {
        "name": "Stuart, Martin, Florida, USA",
        "time": "2023-06-07T04:00:00+09:00"
      }
    },
    {
      "lat": 0.44732,
      "lon": 33.19295,
      "uid": -221968,
      "aqi": "186",
      "station": {
        "name": "aq_g4_100",
        "time": "2023-06-07T02:00:00+09:00"
      }
    },
    {
      "lat": 28.359581,
      "lon": 79.414455,
      "uid": 14133,
      "aqi": "94",
      "station": {
        "name": "Civil Lines, Bareilly, India",
        "time": "2023-06-07T02:30:00+09:00"
      }
    },
    {
      "lat": 63.09515,
      "lon": 21.61832,
      "uid": 4970,
      "aqi": "10",
      "station": {
        "name": "Vaasan keskusta, Vaasa, Finland",
        "time": "2023-06-07T02:00:00+09:00"
      }
    },
    {
      "lat": 44.6321,
      "lon": -63.5798,
      "uid": -363547,
      "aqi": "33",
      "station": {
        "name": "AQSU-9B79",
        "time": "2023-06-07T04:01:21+09:00"
      }
    },
    {
      "lat": 7.884488,
      "lon": 98.391283,
      "uid": 1827,
      "aqi": "57",
      "station": {
        "name": "Municipal Health Center 1, Phuket, Thailand (\u0e28\u0e39\u0e19\u0e22\u0e4c\u0e1a\u0e23\u0e34\u0e01\u0e32\u0e23\u0e2a\u0e32\u0e18\u0e32\u0e23\u0e13\u0e2a\u0e38\u0e02 1 \u0e01\u0e2d\u0e07\u0e01\u0e32\u0e23\u0e41\u0e1e\u0e17\u0e22\u0e4c \u0e40\u0e17\u0e28\u0e1a\u0e32\u0e25\u0e19\u0e04\u0e23\u0e20\u0e39\u0e40\u0e01\u0e47\u0e15)",
        "time": "2023-06-07T03:00:00+09:00"
      }
    },
    {
      "lat": 27.657203,
      "lon": 85.326787,
      "uid": -241798,
      "aqi": "183",
      "station": {
        "name": "F24",
        "time": "2023-06-07T04:03:41+09:00"
      }
    },
    {
      "lat": 55.7296619,
      "lon": 21.9292986,
      "uid": 3320,
      "aqi": "43",
      "station": {
        "name": "Zemaitija, Lithuania",
        "time": "2023-06-07T02:00:00+09:00"
      }
    },
    {
      "lat": 51.897222222222,
      "lon": 14.056666666667,
      "uid": 6191,
      "aqi": "85",
      "station": {
        "name": "Spreewald +, Germany",
        "time": "2023-06-07T03:00:00+09:00"
      }
    },
    {
      "lat": 51.374264,
      "lon": 0.54797,
      "uid": 3169,
      "aqi": "38",
      "station": {
        "name": "Chatham Roadside, United Kingdom",
        "time": "2023-06-07T02:00:00+09:00"
      }
    },
    {
      "lat": 37.7854715,
      "lon": -113.1918021,
      "uid": 10170,
      "aqi": "44",
      "station": {
        "name": "Iron, Utah",
        "time": "2023-06-07T03:00:00+09:00"
      }
    },
    {
      "lat": 53.2005869066,
      "lon": 44.99773580384,
      "uid": -245032,
      "aqi": "10",
      "station": {
        "name": "ulitsa Suvorova",
        "time": "2023-06-07T04:03:50+09:00"
      }
    },
    {
      "lat": 39.839,
      "lon": 118.169,
      "uid": 4639,
      "aqi": "95",
      "station": {
        "name": "Fengrun District Government, Tangshan (\u5510\u5c71\u5e02\u4e30\u6da6\u533a\u653f\u5e9c)",
        "time": "2023-06-07T03:00:00+09:00"
      }
    },
    {
      "lat": 42.9559,
      "lon": 89.1673,
      "uid": 7230,
      "aqi": "50",
      "station": {
        "name": "d\u00ecq\u016b hu\u00e1nb\u01ceo j\u00fa, Turpan (\u5410\u9c81\u756a\u5730\u533a\u5730\u533a\u73af\u4fdd\u5c40)",
        "time": "2023-06-07T03:00:00+09:00"
      }
    },
    {
      "lat": 40.711052,
      "lon": 120.836932,
      "uid": 3478,
      "aqi": "58",
      "station": {
        "name": "Huludao (\u846b\u82a6\u5c9b)",
        "time": "2023-06-07T03:00:00+09:00"
      }
    },
    {
      "lat": 18.812986944444,
      "lon": -98.955305833333,
      "uid": 9162,
      "aqi": "57",
      "station": {
        "name": "Palacio Municipal Cuautla, Cuautla, Morelos, Mexico",
        "time": "2023-06-07T03:00:00+09:00"
      }
    },
    {
      "lat": 48.3841,
      "lon": -115.548,
      "uid": 7524,
      "aqi": "54",
      "station": {
        "name": "Libby Courthouse, Montana, USA",
        "time": "2023-06-07T03:00:00+09:00"
      }
    },
    {
      "lat": 49.49008,
      "lon": 105.94039,
      "uid": -369421,
      "aqi": "84",
      "station": {
        "name": "Darkhan_01",
        "time": "2023-06-07T04:00:44+09:00"
      }
    },
    {
      "lat": 50.006,
      "lon": 36.18,
      "uid": -189625,
      "aqi": "27",
      "station": {
        "name": "Metrobudivsky Lane",
        "time": "2023-06-07T04:01:48+09:00"
      }
    },
    {
      "lat": 3.177084,
      "lon": 113.041091,
      "uid": 2607,
      "aqi": "57",
      "station": {
        "name": "Bintulu, Sarawak, Malaysia",
        "time": "2023-06-07T03:00:00+09:00"
      }
    },
    {
      "lat": 27.11,
      "lon": 114.9739,
      "uid": 7790,
      "aqi": "114",
      "station": {
        "name": "sh\u00ec s\u0113nl\u00edn g\u014dngy\u00e8 j\u00fa, Ji'an (\u5409\u5b89\u5e02\u68ee\u6797\u5de5\u4e1a\u5c40)",
        "time": "2023-06-07T03:00:00+09:00"
      }
    },
    {
      "lat": -29.933006518748,
      "lon": -71.261966365967,
      "uid": 4976,
      "aqi": "59",
      "station": {
        "name": "La Serena, Chile",
        "time": "2023-06-07T02:00:00+09:00"
      }
    },
    {
      "lat": 59.144,
      "lon": 37.934,
      "uid": -368728,
      "aqi": "30",
      "station": {
        "name": "\u041a\u0438\u0440\u0438\u043b\u043b\u043e\u0432\u0441\u043a\u043e\u0435 \u0448\u043e\u0441\u0441\u0435",
        "time": "2023-06-07T04:03:04+09:00"
      }
    },
    {
      "lat": 38.448581,
      "lon": -90.398436,
      "uid": 12853,
      "aqi": "140",
      "station": {
        "name": "Arnold West, Missouri, USA",
        "time": "2023-06-07T03:00:00+09:00"
      }
    },
    {
      "lat": 43.557613,
      "lon": -103.483658,
      "uid": 7487,
      "aqi": "63",
      "station": {
        "name": "Wind Cave, South Dakota, USA",
        "time": "2023-06-07T02:00:00+09:00"
      }
    },
    {
      "lat": -43.03,
      "lon": 147.05,
      "uid": 3301,
      "aqi": "38",
      "station": {
        "name": "Huonville",
        "time": "2023-06-07T02:00:00+09:00"
      }
    },
    {
      "lat": 41.106334018205,
      "lon": 42.705246070182,
      "uid": 4055,
      "aqi": "34",
      "station": {
        "name": "Ardahan, Turkey",
        "time": "2023-06-07T04:00:00+09:00"
      }
    },
    {
      "lat": 53.703889,
      "lon": -9.012672,
      "uid": 5109,
      "aqi": "30",
      "station": {
        "name": "Claremorris, Ireland",
        "time": "2023-06-07T02:00:00+09:00"
      }
    },
    {
      "lat": 53.220056,
      "lon": -114.983408,
      "uid": 5481,
      "aqi": "48",
      "station": {
        "name": "Drayton Valley, Alberta, Canada",
        "time": "2023-06-07T03:00:00+09:00"
      }
    },
    {
      "lat": 51.2975,
      "lon": -116.966,
      "uid": 4213,
      "aqi": "76",
      "station": {
        "name": "Golden Helipad, British Comlumbia, Canada",
        "time": "2023-06-07T02:00:00+09:00"
      }
    },
    {
      "lat": 34.16119,
      "lon": 77.580574,
      "uid": -216862,
      "aqi": "13",
      "station": {
        "name": "NASA_AQCS_119",
        "time": "2023-06-07T04:01:44+09:00"
      }
    },
    {
      "lat": 41.119997,
      "lon": 122.070714,
      "uid": 3479,
      "aqi": "109",
      "station": {
        "name": "Panjin (\u76d8\u9526)",
        "time": "2023-06-07T03:00:00+09:00"
      }
    },
    {
      "lat": 61.11295,
      "lon": 10.46487,
      "uid": 2643,
      "aqi": "38",
      "station": {
        "name": "Bankplassen, Lillehammer, Norway",
        "time": "2023-06-07T03:00:00+09:00"
      }
    },
    {
      "lat": 48.28512062683913,
      "lon": 25.913430441245765,
      "uid": -358297,
      "aqi": "55",
      "station": {
        "name": "Miliivska Street",
        "time": "2023-06-07T04:03:00+09:00"
      }
    },
    {
      "lat": 49.5142141382,
      "lon": 0.10086111170939,
      "uid": 8620,
      "aqi": "55",
      "station": {
        "name": "Ville-haute EREA Genevoix, Le Havre, France",
        "time": "2023-06-07T03:00:00+09:00"
      }
    },
    {
      "lat": 32.807777777778,
      "lon": -16.886388888889,
      "uid": 9996,
      "aqi": "17",
      "station": {
        "name": "Santana, Santana, Portugal",
        "time": "2023-06-07T01:00:00+09:00"
      }
    },
    {
      "lat": 31.8702534,
      "lon": -102.3347563,
      "uid": 196,
      "aqi": "-",
      "station": {
        "name": "Odessa Gonzales, Midland, Texas",
        "time": "2023-06-06T10:00:00+09:00"
      }
    },
    {
      "lat": 54.0163,
      "lon": -124.0061,
      "uid": 4248,
      "aqi": "65",
      "station": {
        "name": "Vanderhoof, British Comlumbia, Canada",
        "time": "2023-06-07T02:00:00+09:00"
      }
    },
    {
      "lat": 10.348329,
      "lon": 123.61401,
      "uid": -399577,
      "aqi": "84",
      "station": {
        "name": "Toledo 2",
        "time": "2023-06-07T02:00:00+09:00"
      }
    },
    {
      "lat": 10.947142,
      "lon": 106.883835,
      "uid": -365836,
      "aqi": "148",
      "station": {
        "name": "AQSEA_VN_027",
        "time": "2023-06-07T04:01:29+09:00"
      }
    },
    {
      "lat": 26.181742,
      "lon": 91.78063,
      "uid": 11844,
      "aqi": "147",
      "station": {
        "name": "Railway Colony, Guwahati, India",
        "time": "2023-06-07T03:30:00+09:00"
      }
    },
    {
      "lat": 55.9,
      "lon": 8.516,
      "uid": -102532,
      "aqi": "116",
      "station": {
        "name": "Vardevej",
        "time": "2023-06-07T04:02:30+09:00"
      }
    },
    {
      "lat": 58.708,
      "lon": 50.19,
      "uid": -188203,
      "aqi": "10",
      "station": {
        "name": "\u0443\u043b\u0438\u0446\u0430 \u041a\u0438\u0440\u043e\u0432\u0430",
        "time": "2023-06-07T04:01:56+09:00"
      }
    },
    {
      "lat": 57.126,
      "lon": 24.288,
      "uid": -180316,
      "aqi": "13",
      "station": {
        "name": "Upma\u013ci",
        "time": "2023-06-07T04:02:38+09:00"
      }
    },
    {
      "lat": 41.9644063,
      "lon": 12.6684397,
      "uid": 9342,
      "aqi": "57",
      "station": {
        "name": "Francia, Roma, Lazio, Italy",
        "time": "2023-06-06T06:00:00+09:00"
      }
    },
    {
      "lat": 68.79222701,
      "lon": 16.53742346,
      "uid": 12701,
      "aqi": "7",
      "station": {
        "name": "Seljestad Rv83, Harstad, Norway",
        "time": "2023-06-07T03:00:00+09:00"
      }
    },
    {
      "lat": 14.747316883255913,
      "lon": -17.405564809039884,
      "uid": -352441,
      "aqi": "58",
      "station": {
        "name": "aq_g5_76",
        "time": "2023-06-07T02:00:00+09:00"
      }
    },
    {
      "lat": 30.2175,
      "lon": -92.051389,
      "uid": 6515,
      "aqi": "36",
      "station": {
        "name": "Lafayette USGS site, Louisiana, USA",
        "time": "2023-06-07T02:00:00+09:00"
      }
    },
    {
      "lat": 0.421069,
      "lon": 9.469289,
      "uid": -247984,
      "aqi": "87",
      "station": {
        "name": "TTIGE (Foyer Nzeng-Ayong)",
        "time": "2023-06-07T04:02:09+09:00"
      }
    },
    {
      "lat": -32.55748,
      "lon": 151.1769,
      "uid": 14871,
      "aqi": "57",
      "station": {
        "name": "Singleton Singleton",
        "time": "2023-06-07T02:00:00+09:00"
      }
    },
    {
      "lat": 41.005989848626,
      "lon": 39.712321860119,
      "uid": 4133,
      "aqi": "61",
      "station": {
        "name": "Trabzon (Valilik), Turkey",
        "time": "2023-06-07T03:00:00+09:00"
      }
    },
    {
      "lat": 19.806,
      "lon": -70.704,
      "uid": -52315,
      "aqi": "51",
      "station": {
        "name": "Calle Guayacanes",
        "time": "2023-06-07T04:03:05+09:00"
      }
    },
    {
      "lat": 30.9892,
      "lon": 112.1969,
      "uid": 6957,
      "aqi": "89",
      "station": {
        "name": "duodao, Jingmen, Hubei (\u8346\u95e8\u6387\u5200)",
        "time": "2023-06-07T02:00:00+09:00"
      }
    },
    {
      "lat": 58.14888,
      "lon": 7.99183,
      "uid": 2642,
      "aqi": "45",
      "station": {
        "name": "Stener Heyerdahl, Kristiansand, Norway",
        "time": "2023-06-07T03:00:00+09:00"
      }
    },
    {
      "lat": 4.89885,
      "lon": 100.679106,
      "uid": 2595,
      "aqi": "53",
      "station": {
        "name": "Kg. Air Putih, Taiping, Perak, Malaysia",
        "time": "2023-06-07T03:00:00+09:00"
      }
    },
    {
      "lat": 12.2546018,
      "lon": 102.6209307,
      "uid": -121930,
      "aqi": "76",
      "station": {
        "name": "\u0e2b\u0e19\u0e48\u0e27\u0e22\u0e40\u0e09\u0e1e\u0e32\u0e30\u0e01\u0e34\u0e08\u0e19\u0e32\u0e27\u0e34\u0e01\u0e42\u0e22\u0e18\u0e34\u0e19\u0e15\u0e23\u0e32\u0e14 \u0e15.\u0e15\u0e30\u0e01\u0e32\u0e07 \u0e2d.\u0e40\u0e21\u0e37\u0e2d\u0e07\u0e15\u0e23\u0e32\u0e14 \u0e08.\u0e15\u0e23\u0e32\u0e14 (\u0e01\u0e2d.\u0e23\u0e21\u0e19.\u0e20\u0e32\u0e04 1 \u0e2a\u0e22.3)",
        "time": "2023-06-07T03:00:00+09:00"
      }
    },
    {
      "lat": 35.7067,
      "lon": 107.6364,
      "uid": 7152,
      "aqi": "57",
      "station": {
        "name": "City EPA, Qingyang (\u5e86\u9633\u5e02\u73af\u4fdd\u5c40)",
        "time": "2023-06-07T03:00:00+09:00"
      }
    },
    {
      "lat": -46.147584304545,
      "lon": 168.3234663957,
      "uid": 11981,
      "aqi": "33",
      "station": {
        "name": "Winton Winton At Essex Street, New Zealand",
        "time": "2023-06-07T01:00:00+09:00"
      }
    },
    {
      "lat": -38.691894931917,
      "lon": 176.09117495496,
      "uid": 11987,
      "aqi": "105",
      "station": {
        "name": "Taupo Gillies Ave, New Zealand",
        "time": "2023-06-07T01:00:00+09:00"
      }
    },
    {
      "lat": 45.759381,
      "lon": 27.067362,
      "uid": -354814,
      "aqi": "65",
      "station": {
        "name": "Strada Libert\u0103\u021bii",
        "time": "2023-06-07T03:54:31+09:00"
      }
    },
    {
      "lat": 49.83917,
      "lon": -99.92069,
      "uid": 6911,
      "aqi": "-",
      "station": {
        "name": "Brandon, Manitoba, Canada",
        "time": "2023-06-05T03:00:00+09:00"
      }
    },
    {
      "lat": 54.292637,
      "lon": -130.35242,
      "uid": 13976,
      "aqi": "10",
      "station": {
        "name": "Prince Rupert Fairview, British Comlumbia, Canada",
        "time": "2023-06-07T02:00:00+09:00"
      }
    },
    {
      "lat": -35.073352,
      "lon": 138.864943,
      "uid": 14873,
      "aqi": "52",
      "station": {
        "name": "Mt Barker (Wood Smoke Program)",
        "time": "2023-06-07T02:30:00+09:00"
      }
    },
    {
      "lat": 43.6801,
      "lon": 122.2532,
      "uid": 7302,
      "aqi": "93",
      "station": {
        "name": "Art vocational school, Tongliao (\u901a\u8fbd\u827a\u672f\u804c\u4e1a\u5b66\u6821)",
        "time": "2023-06-07T03:00:00+09:00"
      }
    },
    {
      "lat": 34.7466,
      "lon": 113.625368,
      "uid": 10970,
      "aqi": "187",
      "station": {
        "name": "Gangli Reservoir, Sh\u00ec xi\u00e1q\u016b, Zhengzhou (\u90d1\u5dde\u5e02\u8f96\u533a\u5c97\u674e\u6c34\u5e93)",
        "time": "2023-06-07T03:00:00+09:00"
      }
    },
    {
      "lat": 27.8317,
      "lon": 99.7056,
      "uid": 7228,
      "aqi": "65",
      "station": {
        "name": "Diqing station, Diqing (\u8fea\u5e86\u5dde\u8fea\u5e86\u5dde\u7ad9)",
        "time": "2023-06-07T03:00:00+09:00"
      }
    },
    {
      "lat": -34.974925077541,
      "lon": -71.233967512329,
      "uid": 422,
      "aqi": "160",
      "station": {
        "name": "Curic\u00f3, Chile",
        "time": "2023-06-07T01:00:00+09:00"
      }
    },
    {
      "lat": 39.278333333333,
      "lon": -9.2455555555556,
      "uid": 8377,
      "aqi": "-",
      "station": {
        "name": "Lourinh\u00e3, Lourinh\u00e3, Portugal",
        "time": "2023-06-05T17:00:00+09:00"
      }
    },
    {
      "lat": 4.93785,
      "lon": -52.3209,
      "uid": 8137,
      "aqi": "16",
      "station": {
        "name": "Cayenne Caiena 3, Guyane, France",
        "time": "2023-06-07T03:00:00+09:00"
      }
    },
    {
      "lat": 50.316,
      "lon": 57.126,
      "uid": -216664,
      "aqi": "79",
      "station": {
        "name": "\u0420\u044b\u0441\u043a\u0443\u043b\u043e\u0432\u0430 4\u0413",
        "time": "2023-06-07T03:59:36+09:00"
      }
    },
    {
      "lat": -32.98312,
      "lon": 17.98497,
      "uid": 14068,
      "aqi": "-",
      "station": {
        "name": "Saldanha IDZ, West Coast, South Africa",
        "time": "2023-06-06T19:00:00+09:00"
      }
    },
    {
      "lat": 20.9416,
      "lon": 107.1158,
      "uid": 5507,
      "aqi": "-",
      "station": {
        "name": "Ha Long, Vietnam (Tp H\u1ea1 Long)",
        "time": "2023-06-07T02:00:00+09:00"
      }
    },
    {
      "lat": 49.555501,
      "lon": 27.95207,
      "uid": -378418,
      "aqi": "54",
      "station": {
        "name": "prospekt Svobody, 12",
        "time": "2023-06-07T04:02:46+09:00"
      }
    },
    {
      "lat": 13.735867,
      "lon": 100.279984,
      "uid": -195718,
      "aqi": "114",
      "station": {
        "name": "\u0e28\u0e1e\u0e14.\u0e17\u0e21.\u0e44\u0e23\u0e48\u0e02\u0e34\u0e07 \u0e41\u0e2b\u0e48\u0e07\u0e17\u0e35\u0e48 4 \u0e27\u0e31\u0e07\u0e21\u0e13\u0e35 \u0e15.\u0e44\u0e23\u0e48\u0e02\u0e34\u0e07 \u0e2d.\u0e2a\u0e32\u0e21\u0e1e\u0e23\u0e32\u0e19 \u0e08.\u0e19\u0e04\u0e23\u0e1b\u0e10\u0e21",
        "time": "2023-06-07T03:00:00+09:00"
      }
    },
    {
      "lat": 41.659213592623,
      "lon": 26.585039015326,
      "uid": 4142,
      "aqi": "45",
      "station": {
        "name": "Edirne, Turkey",
        "time": "2023-06-07T04:00:00+09:00"
      }
    },
    {
      "lat": -21.044583333333,
      "lon": 55.226713888889,
      "uid": 8623,
      "aqi": "20",
      "station": {
        "name": "Grand Fond, Reunion, France",
        "time": "2023-06-07T03:00:00+09:00"
      }
    },
    {
      "lat": 18.0251579,
      "lon": 103.075514,
      "uid": -246265,
      "aqi": "86",
      "station": {
        "name": "\u0e2a\u0e2a\u0e2d.\u0e42\u0e1e\u0e19\u0e1e\u0e34\u0e2a\u0e31\u0e22 \u0e15.\u0e08\u0e38\u0e21\u0e1e\u0e25 \u0e2d.\u0e42\u0e1e\u0e19\u0e1e\u0e34\u0e2a\u0e31\u0e22 \u0e08.\u0e2b\u0e19\u0e2d\u0e07\u0e04\u0e32\u0e22",
        "time": "2023-06-07T03:00:00+09:00"
      }
    },
    {
      "lat": 57.698523,
      "lon": 16.624801,
      "uid": -110824,
      "aqi": "38",
      "station": {
        "name": "Narsvik",
        "time": "2023-06-07T03:54:13+09:00"
      }
    },
    {
      "lat": 63.410491,
      "lon": 10.444352,
      "uid": 13460,
      "aqi": "21",
      "station": {
        "name": "Omkjoringsvegen, Trondheim, Norway",
        "time": "2023-06-07T03:00:00+09:00"
      }
    },
    {
      "lat": 37.79463,
      "lon": -122.40591,
      "uid": -398116,
      "aqi": "60",
      "station": {
        "name": "Portsmouth Square",
        "time": "2023-06-07T02:00:00+09:00"
      }
    },
    {
      "lat": 58.51658,
      "lon": -117.06416,
      "uid": -236857,
      "aqi": "105",
      "station": {
        "name": "AQSU-98F1",
        "time": "2023-06-07T04:01:55+09:00"
      }
    },
    {
      "lat": 40.6675549826,
      "lon": 35.835541213062,
      "uid": 4115,
      "aqi": "57",
      "station": {
        "name": "Amasya, Turkey",
        "time": "2023-06-07T03:00:00+09:00"
      }
    },
    {
      "lat": 44.9546463,
      "lon": 25.99903363,
      "uid": -235732,
      "aqi": "54",
      "station": {
        "name": "Aleea Arinului",
        "time": "2023-06-07T03:51:00+09:00"
      }
    },
    {
      "lat": 51.848,
      "lon": 107.62,
      "uid": -197362,
      "aqi": "9",
      "station": {
        "name": "\u041a\u043e\u043c\u0441\u043e\u043c\u043e\u043b\u044c\u0441\u043a\u0430\u044f \u0443\u043b\u0438\u0446\u0430",
        "time": "2023-06-07T04:03:46+09:00"
      }
    },
    {
      "lat": 40.296,
      "lon": 69.609,
      "uid": -190342,
      "aqi": "154",
      "station": {
        "name": "19 \u043c\u043a\u0440\u043d (1)",
        "time": "2023-06-07T03:59:18+09:00"
      }
    },
    {
      "lat": 52.275,
      "lon": 76.962,
      "uid": -236605,
      "aqi": "83",
      "station": {
        "name": "\u0422\u043e\u043b\u0441\u0442\u043e\u0433\u043e 95",
        "time": "2023-06-07T03:59:01+09:00"
      }
    },
    {
      "lat": 56.832,
      "lon": 60.658,
      "uid": -104035,
      "aqi": "86",
      "station": {
        "name": "\u0411\u0438\u0431\u043b\u0438\u043e\u0442\u0435\u0447\u043d\u0430\u044f \u0443\u043b\u0438\u0446\u0430",
        "time": "2023-06-07T04:02:36+09:00"
      }
    },
    {
      "lat": 51.3466,
      "lon": -102.744225,
      "uid": -206665,
      "aqi": "38",
      "station": {
        "name": "AQSU-47FC",
        "time": "2023-06-07T04:02:19+09:00"
      }
    },
    {
      "lat": -34.6775885,
      "lon": -58.701767,
      "uid": 10109,
      "aqi": "61",
      "station": {
        "name": "La Matanza, Acumar, Argentina",
        "time": "2023-06-07T01:00:00+09:00"
      }
    },
    {
      "lat": 32.690277,
      "lon": -114.614441,
      "uid": 8395,
      "aqi": "46",
      "station": {
        "name": "Yuma Supersite, Arizona, USA",
        "time": "2023-06-07T03:00:00+09:00"
      }
    },
    {
      "lat": 32.7762734,
      "lon": 129.9518412,
      "uid": 5380,
      "aqi": "50",
      "station": {
        "name": "Yagamimachi, Nagasaki, Nagasaki, Japan (\u6771\u9577\u5d0e\u652f\u6240\u9577\u5d0e\u5e02)",
        "time": "2023-06-07T03:00:00+09:00"
      }
    },
    {
      "lat": 28.7867,
      "lon": 104.6061,
      "uid": 3613,
      "aqi": "151",
      "station": {
        "name": "No. 4 middle school, Yibin (\u5b9c\u5bbe\u5b9c\u5bbe\u56db\u4e2d)",
        "time": "2023-06-07T03:00:00+09:00"
      }
    },
    {
      "lat": -8.8077875,
      "lon": 13.2386689,
      "uid": -398593,
      "aqi": "90",
      "station": {
        "name": "UAN-Luanda",
        "time": "2023-06-07T02:00:00+09:00"
      }
    },
    {
      "lat": 53.504,
      "lon": 49.426,
      "uid": -235153,
      "aqi": "33",
      "station": {
        "name": "\u0443\u043b\u0438\u0446\u0430 \u0411\u0430\u043d\u044b\u043a\u0438\u043d\u0430",
        "time": "2023-06-07T04:02:10+09:00"
      }
    },
    {
      "lat": -30.50851,
      "lon": 151.66173,
      "uid": 10718,
      "aqi": "80",
      "station": {
        "name": "Armidale Northern Tablelands",
        "time": "2023-06-07T02:00:00+09:00"
      }
    },
    {
      "lat": 16.9908527,
      "lon": 98.5271491,
      "uid": -2635,
      "aqi": "67",
      "station": {
        "name": "\u0e23\u0e1e.\u0e41\u0e21\u0e48\u0e23\u0e30\u0e21\u0e32\u0e14 \u0e15.\u0e41\u0e21\u0e48\u0e23\u0e30\u0e21\u0e32\u0e14 \u0e2d.\u0e41\u0e21\u0e48\u0e23\u0e30\u0e21\u0e32\u0e14 \u0e08.\u0e15\u0e32\u0e01",
        "time": "2023-06-07T03:00:00+09:00"
      }
    },
    {
      "lat": 35.820343,
      "lon": -78.796906,
      "uid": -124921,
      "aqi": "116",
      "station": {
        "name": "NASA_AQCS_7",
        "time": "2023-06-07T04:01:04+09:00"
      }
    },
    {
      "lat": 36.1797,
      "lon": -94.1167,
      "uid": 7381,
      "aqi": "124",
      "station": {
        "name": "Sprngdle, Arkansas, USA",
        "time": "2023-06-07T03:00:00+09:00"
      }
    },
    {
      "lat": -37.98,
      "lon": -63.602,
      "uid": -197584,
      "aqi": "8",
      "station": {
        "name": "25 de Mayo",
        "time": "2023-06-07T04:03:19+09:00"
      }
    },
    {
      "lat": 29.969617,
      "lon": 35.061257,
      "uid": 10742,
      "aqi": "62",
      "station": {
        "name": "Ketura, Northern Negev, Israel (\u05d9\u05e9\u05e8\u05d0\u05dc,\u05e7\u05d8\u05d5\u05e8\u05d4, \u05e6\u05e4\u05d5\u05df \u05d4\u05e0\u05d2\u05d1)",
        "time": "2023-06-07T02:00:00+09:00"
      }
    },
    {
      "lat": 34.6917,
      "lon": -86.591698,
      "uid": 7596,
      "aqi": "79",
      "station": {
        "name": "Huntsville Old Airport, Alabama, USA",
        "time": "2023-06-07T03:00:00+09:00"
      }
    },
    {
      "lat": 9.03378,
      "lon": 38.765633,
      "uid": -218920,
      "aqi": "160",
      "station": {
        "name": "AAU 4K",
        "time": "2023-06-07T04:01:26+09:00"
      }
    },
    {
      "lat": 44.150528,
      "lon": -77.3955,
      "uid": 1,
      "aqi": "213",
      "station": {
        "name": "Belleville, Ontario, Canada",
        "time": "2023-06-07T04:00:00+09:00"
      }
    },
    {
      "lat": 37.2831,
      "lon": -83.2203,
      "uid": 7408,
      "aqi": "142",
      "station": {
        "name": "Haz2, Kentucky, USA",
        "time": "2023-06-07T03:00:00+09:00"
      }
    },
    {
      "lat": 62.22864,
      "lon": -133.3564,
      "uid": -397762,
      "aqi": "46",
      "station": {
        "name": "AQSU-442E (Faro)",
        "time": "2023-06-07T04:02:18+09:00"
      }
    },
    {
      "lat": 56.105722,
      "lon": 94.572602,
      "uid": 12546,
      "aqi": "-",
      "station": {
        "name": "Zelenogorsk, Krasnoyarsk, Russia (\u0417\u0435\u043b\u0435\u043d\u043e\u0433\u043e\u0440\u0441\u043a)",
        "time": "2023-06-07T00:00:00+09:00"
      }
    },
    {
      "lat": 25.4547,
      "lon": 78.6039,
      "uid": 13877,
      "aqi": "145",
      "station": {
        "name": "Shivaji Nagar, Jhansi, India",
        "time": "2023-06-07T02:30:00+09:00"
      }
    },
    {
      "lat": 14.468867,
      "lon": -60.927389,
      "uid": 10082,
      "aqi": "58",
      "station": {
        "name": "Sainte-Luce, Martinique, France",
        "time": "2023-06-07T03:00:00+09:00"
      }
    },
    {
      "lat": -14.86934,
      "lon": 13.46949,
      "uid": -399412,
      "aqi": "84",
      "station": {
        "name": "ISPT - Jembas",
        "time": "2023-06-07T02:00:00+09:00"
      }
    },
    {
      "lat": 14.804101,
      "lon": 106.83814,
      "uid": -370204,
      "aqi": "21",
      "station": {
        "name": "AQSEA_LAO_020",
        "time": "2023-06-07T04:01:28+09:00"
      }
    },
    {
      "lat": 35.9729798,
      "lon": 128.9376783,
      "uid": 11503,
      "aqi": "82",
      "station": {
        "name": "Yeongcheonsi, Gyeongbuk, South Korea (\uc601\ucc9c\uc2dc \uacbd\ubd81)",
        "time": "2023-06-07T03:00:00+09:00"
      }
    },
    {
      "lat": 39.843184654638,
      "lon": 33.518100986288,
      "uid": 4107,
      "aqi": "48",
      "station": {
        "name": "Kirikkale, Turkey",
        "time": "2023-06-07T04:00:00+09:00"
      }
    },
    {
      "lat": 45.806357,
      "lon": -108.426551,
      "uid": 9644,
      "aqi": "18",
      "station": {
        "name": "Billlings Lockwood, Montana, USA",
        "time": "2023-06-07T03:00:00+09:00"
      }
    },
    {
      "lat": 0.64726,
      "lon": 30.26844,
      "uid": -232645,
      "aqi": "195",
      "station": {
        "name": "aq_g533",
        "time": "2023-06-07T02:00:00+09:00"
      }
    },
    {
      "lat": 3.435,
      "lon": -76.53,
      "uid": -364597,
      "aqi": "99",
      "station": {
        "name": "Calle 11A",
        "time": "2023-06-07T04:04:35+09:00"
      }
    },
    {
      "lat": 39.878,
      "lon": 116.352,
      "uid": 449,
      "aqi": "91",
      "station": {
        "name": "Wanshou Temple, Beijing (\u897f\u57ce\u4e07\u5bff\u897f\u5bab)",
        "time": "2023-06-07T03:00:00+09:00"
      }
    },
    {
      "lat": 46.7432,
      "lon": 82.9994,
      "uid": 7247,
      "aqi": "68",
      "station": {
        "name": "d\u014dng m\u00e9n w\u00e0i xi\u01ceo y\u00f3uyu\u00e1n, Tacheng (\u5854\u57ce\u5730\u533a\u4e1c\u95e8\u5916\u5c0f\u6e38\u56ed)",
        "time": "2023-06-07T03:00:00+09:00"
      }
    },
    {
      "lat": 37.058338788986,
      "lon": 37.351042061719,
      "uid": 4087,
      "aqi": "66",
      "station": {
        "name": "Gaziantep, Turkey",
        "time": "2023-06-07T04:00:00+09:00"
      }
    },
    {
      "lat": 44.87030041894,
      "lon": 4.876288924175,
      "uid": 3054,
      "aqi": "56",
      "station": {
        "name": "Valence Sud, France",
        "time": "2023-06-07T02:00:00+09:00"
      }
    },
    {
      "lat": 53.1325,
      "lon": -117.091111,
      "uid": 5502,
      "aqi": "61",
      "station": {
        "name": "Steeper, Alberta, Canada",
        "time": "2023-06-07T03:00:00+09:00"
      }
    },
    {
      "lat": 55.75,
      "lon": 48.746,
      "uid": -373318,
      "aqi": "10",
      "station": {
        "name": "Sportivnaya street",
        "time": "2023-06-07T04:03:35+09:00"
      }
    },
    {
      "lat": 59.78794146864,
      "lon": 30.11272609234,
      "uid": -155680,
      "aqi": "41",
      "station": {
        "name": "\u0443\u043b\u0438\u0446\u0430 \u0414\u0440\u0443\u0436\u0431\u044b",
        "time": "2023-06-07T04:01:33+09:00"
      }
    },
    {
      "lat": -69.540985,
      "lon": -179.51013,
      "uid": -399880,
      "aqi": "25",
      "station": {
        "name": "AQSU-D12E",
        "time": "2023-06-07T04:00:39+09:00"
      }
    },
    {
      "lat": -34.198,
      "lon": 22.084,
      "uid": -212302,
      "aqi": "78",
      "station": {
        "name": "Thicket Drive",
        "time": "2023-06-07T04:03:08+09:00"
      }
    },
    {
      "lat": 24.3403337,
      "lon": 124.1872098,
      "uid": 2481,
      "aqi": "17",
      "station": {
        "name": "Maezato, Ishigaki, Okinawa, Japan (\u77f3\u57a3\u77f3\u57a3\u5e02)",
        "time": "2023-06-07T03:00:00+09:00"
      }
    },
    {
      "lat": 64.902664,
      "lon": -125.58783,
      "uid": -350299,
      "aqi": "84",
      "station": {
        "name": "AQSU-1F13",
        "time": "2023-06-07T04:01:32+09:00"
      }
    },
    {
      "lat": 39.4861,
      "lon": -87.4014,
      "uid": 7506,
      "aqi": "160",
      "station": {
        "name": "Terre Haute-Lafayette Ave, Indiana, USA",
        "time": "2023-06-07T02:00:00+09:00"
      }
    },
    {
      "lat": 41.294176,
      "lon": 123.766485,
      "uid": 1477,
      "aqi": "152",
      "station": {
        "name": "Benxi (\u672c\u6eaa)",
        "time": "2023-06-07T03:00:00+09:00"
      }
    },
    {
      "lat": 38.605,
      "lon": -28.631388888889,
      "uid": 8384,
      "aqi": "33",
      "station": {
        "name": "Faial, Horta (Ilha do Faial), Portugal",
        "time": "2023-06-07T01:00:00+09:00"
      }
    },
    {
      "lat": 46.101389,
      "lon": -64.789639,
      "uid": 8846,
      "aqi": "16",
      "station": {
        "name": "Thanet Street, Moncton, NewBrunswick, Canada",
        "time": "2023-06-07T03:00:00+09:00"
      }
    },
    {
      "lat": 53.988,
      "lon": 27.678,
      "uid": -209995,
      "aqi": "61",
      "station": {
        "name": "\u0443\u043b\u0438\u0446\u0430 40 \u043b\u0435\u0442 \u041f\u043e\u0431\u0435\u0434\u044b",
        "time": "2023-06-07T04:02:06+09:00"
      }
    },
    {
      "lat": 36.77532,
      "lon": 27.95991,
      "uid": 13944,
      "aqi": "25",
      "station": {
        "name": "Dat\u00e7a, Turkey",
        "time": "2023-06-07T04:00:00+09:00"
      }
    },
    {
      "lat": 44.654232025,
      "lon": 11.624819756,
      "uid": 9420,
      "aqi": "46",
      "station": {
        "name": "San Pietro Capofiume, Emilia Romagna, Italy",
        "time": "2023-06-05T06:00:00+09:00"
      }
    },
    {
      "lat": 40.736251,
      "lon": -73.821655,
      "uid": 6905,
      "aqi": "165",
      "station": {
        "name": "Queens College, New York, USA",
        "time": "2023-06-07T02:00:00+09:00"
      }
    },
    {
      "lat": 48.42389,
      "lon": -123.49278,
      "uid": 4234,
      "aqi": "34",
      "station": {
        "name": "Colwood City Hall, British Comlumbia, Canada",
        "time": "2023-06-07T02:00:00+09:00"
      }
    },
    {
      "lat": 51.814,
      "lon": 68.343,
      "uid": -247186,
      "aqi": "-",
      "station": {
        "name": "\u0410\u0442\u0431\u0430\u0441\u0430\u0440, \u0420\u044b\u0441\u043a\u0443\u043b\u043e\u0432\u0430",
        "time": "2023-06-07T03:59:46+09:00"
      }
    },
    {
      "lat": 42.923916,
      "lon": 143.196109,
      "uid": 9897,
      "aqi": "25",
      "station": {
        "name": "Nishi 5 Jominami, Obihiro, Hokkaido, Japan (\u5e2f\u5e83\u5e02\u5f79\u6240\u5e2f\u5e83\u5e02)",
        "time": "2023-06-07T03:00:00+09:00"
      }
    },
    {
      "lat": 33.7235,
      "lon": 73.11822,
      "uid": 11739,
      "aqi": "122",
      "station": {
        "name": "Islamabad US Embassy, Pakistan",
        "time": "2023-06-07T03:00:00+09:00"
      }
    },
    {
      "lat": 62.2415,
      "lon": 25.8415,
      "uid": 13866,
      "aqi": "8",
      "station": {
        "name": "Jysk\u00e4, Jyv\u00e4skyl\u00e4, Finland",
        "time": "2023-06-07T03:00:00+09:00"
      }
    },
    {
      "lat": 49.56598522941305,
      "lon": 25.641525215415776,
      "uid": -377671,
      "aqi": "63",
      "station": {
        "name": "Kulisha Boulevard",
        "time": "2023-06-07T04:00:00+09:00"
      }
    },
    {
      "lat": 24.3304,
      "lon": 109.4108,
      "uid": 3451,
      "aqi": "70",
      "station": {
        "name": "EPA Station, Liuzhou (\u67f3\u5dde\u73af\u4fdd\u76d1\u6d4b\u7ad9)",
        "time": "2023-06-07T03:00:00+09:00"
      }
    },
    {
      "lat": 26.470859,
      "lon": 74.646594,
      "uid": 11311,
      "aqi": "171",
      "station": {
        "name": "Civil Lines, Ajmer, India",
        "time": "2023-06-07T02:30:00+09:00"
      }
    },
    {
      "lat": 4.6249,
      "lon": -74.16135,
      "uid": 6230,
      "aqi": "134",
      "station": {
        "name": "Kennedy, Bogota, Colombia",
        "time": "2023-06-07T03:00:00+09:00"
      }
    },
    {
      "lat": 29.7679707,
      "lon": -95.2205867,
      "uid": 181,
      "aqi": "94",
      "station": {
        "name": "Houston East, Houston, Texas",
        "time": "2023-06-07T02:00:00+09:00"
      }
    },
    {
      "lat": 50.018425,
      "lon": -125.2844,
      "uid": 4239,
      "aqi": "8",
      "station": {
        "name": "Elk Falls Dogwood, British Comlumbia, Canada",
        "time": "2023-06-07T02:00:00+09:00"
      }
    },
    {
      "lat": 5.572646,
      "lon": 5.841162,
      "uid": -399433,
      "aqi": "96",
      "station": {
        "name": "Federal University of Petroleum Resources Effurun - CAR",
        "time": "2023-06-07T02:00:00+09:00"
      }
    },
    {
      "lat": -41.578,
      "lon": 147.172,
      "uid": 3286,
      "aqi": "70",
      "station": {
        "name": "Perth",
        "time": "2023-06-07T02:00:00+09:00"
      }
    },
    {
      "lat": 26.9502929,
      "lon": 75.730943,
      "uid": 11304,
      "aqi": "337",
      "station": {
        "name": "Shastri Nagar, Jaipur, India",
        "time": "2023-06-07T03:30:00+09:00"
      }
    },
    {
      "lat": 63.828858867019,
      "lon": 20.25849061964,
      "uid": 9327,
      "aqi": "13",
      "station": {
        "name": "Ume\u00e5 V\u00e4stra Esplanaden, Sweden",
        "time": "2023-06-07T02:00:00+09:00"
      }
    },
    {
      "lat": 33.9922311,
      "lon": 133.5861801,
      "uid": 2082,
      "aqi": "80",
      "station": {
        "name": "Kamibuncho, Shikokuchuo, Ehime, Japan (\u5ddd\u4e4b\u6c5f\u56db\u56fd\u4e2d\u592e\u5e02)",
        "time": "2023-06-07T03:00:00+09:00"
      }
    },
    {
      "lat": 25.1328,
      "lon": 99.1711,
      "uid": 7208,
      "aqi": "72",
      "station": {
        "name": "City EPA, Baoshan (\u4fdd\u5c71\u5e02\u73af\u4fdd\u5c40)",
        "time": "2023-06-07T03:00:00+09:00"
      }
    },
    {
      "lat": 48.783,
      "lon": 20.987,
      "uid": 3121,
      "aqi": "53",
      "station": {
        "name": "Kojsovska Hola, Slovakia",
        "time": "2023-06-07T02:00:00+09:00"
      }
    },
    {
      "lat": 16.112111,
      "lon": 120.109228,
      "uid": -399286,
      "aqi": "100",
      "station": {
        "name": "Sual powerplant",
        "time": "2023-06-07T02:00:00+09:00"
      }
    },
    {
      "lat": 26.6611,
      "lon": 119.5392,
      "uid": 7179,
      "aqi": "76",
      "station": {
        "name": "Ningde Stations, Ningde (\u5b81\u5fb7\u5b81\u5fb7\u5e02\u76d1\u6d4b\u7ad9)",
        "time": "2023-06-07T03:00:00+09:00"
      }
    },
    {
      "lat": 29.1242,
      "lon": 110.4697,
      "uid": 3864,
      "aqi": "50",
      "station": {
        "name": "Power Administration Bureau, Zhangjiajie (\u5f20\u5bb6\u754c\u7535\u4e1a\u5c40)",
        "time": "2023-06-07T03:00:00+09:00"
      }
    },
    {
      "lat": 22.08815,
      "lon": 82.13737,
      "uid": 13742,
      "aqi": "161",
      "station": {
        "name": "Mangala, Bilaspur, India",
        "time": "2023-06-07T03:30:00+09:00"
      }
    },
    {
      "lat": 9.6683052,
      "lon": 80.0229915,
      "uid": -398299,
      "aqi": "8",
      "station": {
        "name": "Jaffna",
        "time": "2023-06-07T02:00:00+09:00"
      }
    },
    {
      "lat": 41.0385,
      "lon": 113.1076,
      "uid": 9890,
      "aqi": "59",
      "station": {
        "name": "\u5149\u660e\u8857\u5c0f\u5b66, Ulanqab (\u4e4c\u5170\u5bdf\u5e03\u5149\u660e\u8857\u5c0f\u5b66)",
        "time": "2023-06-07T03:00:00+09:00"
      }
    },
    {
      "lat": 47.957556,
      "lon": 106.822745,
      "uid": 9015,
      "aqi": "109",
      "station": {
        "name": "Bayankhoshuu, Ulaanbaatar (\u0411\u0430\u044f\u043d\u0445\u043e\u0448\u0443\u0443)",
        "time": "2023-06-07T02:00:00+09:00"
      }
    },
    {
      "lat": 37.4266352,
      "lon": -7.5138979,
      "uid": 10518,
      "aqi": "45",
      "station": {
        "name": "Cerro, Alcoutim, Portugal",
        "time": "2023-06-07T01:00:00+09:00"
      }
    },
    {
      "lat": 38.9847,
      "lon": -75.5556,
      "uid": 7392,
      "aqi": "140",
      "station": {
        "name": "Killens, Delaware, USA",
        "time": "2023-06-07T03:00:00+09:00"
      }
    },
    {
      "lat": 37.36075,
      "lon": -118.3308,
      "uid": 13220,
      "aqi": "38",
      "station": {
        "name": "Bishop-White Mountain Research Center, Inyo, California",
        "time": "2023-06-07T02:00:00+09:00"
      }
    },
    {
      "lat": -29.654067,
      "lon": 150.829733,
      "uid": -111067,
      "aqi": "17",
      "station": {
        "name": "Inverell Street",
        "time": "2023-06-07T04:02:04+09:00"
      }
    },
    {
      "lat": 31.319788,
      "lon": 121.449684,
      "uid": 10202,
      "aqi": "157",
      "station": {
        "name": "Baoshan Temple Line, Shanghai (\u5b9d\u5c71\u5e99\u884c)",
        "time": "2023-06-07T03:00:00+09:00"
      }
    },
    {
      "lat": 24.7955,
      "lon": 84.9994,
      "uid": 12442,
      "aqi": "151",
      "station": {
        "name": "Collectorate, Gaya, India",
        "time": "2023-06-07T03:30:00+09:00"
      }
    },
    {
      "lat": 47.2986,
      "lon": -101.7669,
      "uid": 7362,
      "aqi": "58",
      "station": {
        "name": "Beulah North, North Dakota, USA",
        "time": "2023-06-07T02:00:00+09:00"
      }
    },
    {
      "lat": 51.49611,
      "lon": -107.0625,
      "uid": -46504,
      "aqi": "42",
      "station": {
        "name": "AQSU-3317",
        "time": "2023-06-07T04:01:52+09:00"
      }
    },
    {
      "lat": -33.8447,
      "lon": 148.65,
      "uid": 13768,
      "aqi": "20",
      "station": {
        "name": "Central Tablelands LLS Cowra",
        "time": "2023-06-07T02:00:00+09:00"
      }
    },
    {
      "lat": 32.090333333333,
      "lon": 112.21097222222,
      "uid": 6467,
      "aqi": "104",
      "station": {
        "name": "Xiangzhou Hangkong Road , Xiangyang, Hubei (\u8944\u9633\u8944\u5dde\u822a\u7a7a\u8def)",
        "time": "2023-06-07T03:00:00+09:00"
      }
    },
    {
      "lat": 45.1642,
      "lon": 124.8528,
      "uid": 7291,
      "aqi": "48",
      "station": {
        "name": "Jiangbei, Songyuan (\u677e\u539f\u6c5f\u5317)",
        "time": "2023-06-07T03:00:00+09:00"
      }
    },
    {
      "lat": 40.633889999469,
      "lon": -4.01333,
      "uid": 8253,
      "aqi": "72",
      "station": {
        "name": "collado villalba, Madrid, Spain",
        "time": "2023-06-07T01:00:00+09:00"
      }
    },
    {
      "lat": 43.011906,
      "lon": -73.6491,
      "uid": 11436,
      "aqi": "158",
      "station": {
        "name": "Stillwater, New York, USA",
        "time": "2023-06-07T02:00:00+09:00"
      }
    },
    {
      "lat": 39.785622,
      "lon": -104.98846,
      "uid": 9631,
      "aqi": "46",
      "station": {
        "name": "I-25 Globeville, Colorado, USA",
        "time": "2023-06-07T02:00:00+09:00"
      }
    },
    {
      "lat": 47.5212,
      "lon": -92.5393,
      "uid": 7337,
      "aqi": "38",
      "station": {
        "name": "Virginia, Minnesota, USA",
        "time": "2023-06-07T03:00:00+09:00"
      }
    },
    {
      "lat": 65.53496,
      "lon": 72.51644,
      "uid": -135472,
      "aqi": "14",
      "station": {
        "name": "Nadym city center",
        "time": "2023-06-07T04:02:17+09:00"
      }
    },
    {
      "lat": -33.3588705,
      "lon": 116.1540412,
      "uid": 6441,
      "aqi": "15",
      "station": {
        "name": "Collie",
        "time": "2023-06-07T03:00:00+09:00"
      }
    },
    {
      "lat": 29.6541,
      "lon": 91.1774,
      "uid": 1387,
      "aqi": "61",
      "station": {
        "name": "Tibet University, Lhasa (\u62c9\u8428\u897f\u85cf\u5927\u5b66)",
        "time": "2023-06-07T03:00:00+09:00"
      }
    },
    {
      "lat": 63.84549728484,
      "lon": 15.319730335478,
      "uid": 10521,
      "aqi": "27",
      "station": {
        "name": "Bredk\u00e4len, Sweden",
        "time": "2023-06-07T02:00:00+09:00"
      }
    },
    {
      "lat": 3.133169,
      "lon": 101.608011,
      "uid": 2620,
      "aqi": "62",
      "station": {
        "name": "Petaling Jaya, Selangor, Malaysia",
        "time": "2023-06-07T03:00:00+09:00"
      }
    },
    {
      "lat": 29.2647,
      "lon": 117.1558,
      "uid": 7772,
      "aqi": "93",
      "station": {
        "name": "t\u00e1i d\u00e1 t\u00e1oc\u00ed, Jingdezhen (\u666f\u5fb7\u9547\u53f0\u8fbe\u9676\u74f7)",
        "time": "2023-06-07T03:00:00+09:00"
      }
    },
    {
      "lat": 37.89261041333,
      "lon": -4.7623381060863,
      "uid": 8462,
      "aqi": "49",
      "station": {
        "name": "Lepanto, Cordoba, Spain",
        "time": "2023-06-07T03:00:00+09:00"
      }
    },
    {
      "lat": 14.64799638229,
      "lon": 120.97788065672,
      "uid": -64045,
      "aqi": "152",
      "station": {
        "name": "Baltazar Street",
        "time": "2023-06-07T04:02:05+09:00"
      }
    },
    {
      "lat": 14.793612,
      "lon": 103.43056,
      "uid": -397717,
      "aqi": "55",
      "station": {
        "name": "Pyramid Retreat",
        "time": "2023-06-07T04:04:16+09:00"
      }
    },
    {
      "lat": 44.1959,
      "lon": 66.7282,
      "uid": -365548,
      "aqi": "500",
      "station": {
        "name": "\u041a\u044b\u0437\u044b\u043b\u043e\u0440\u0434\u0430",
        "time": "2023-06-07T03:59:32+09:00"
      }
    },
    {
      "lat": 46.8064,
      "lon": 61.6479,
      "uid": -365542,
      "aqi": "5",
      "station": {
        "name": "\u0410\u0440\u0430\u043b\u044c\u0441\u043a",
        "time": "2023-06-07T03:59:17+09:00"
      }
    },
    {
      "lat": -30.8517,
      "lon": 143.0742,
      "uid": 12397,
      "aqi": "4",
      "station": {
        "name": "Western LLS White Cliffs",
        "time": "2023-06-07T02:00:00+09:00"
      }
    },
    {
      "lat": 48.1211242,
      "lon": 17.1294547,
      "uid": 3110,
      "aqi": "59",
      "station": {
        "name": "Mamateyova, Bratislava, Slovakia",
        "time": "2023-06-07T03:00:00+09:00"
      }
    },
    {
      "lat": 37.860094,
      "lon": 32.475303,
      "uid": 4109,
      "aqi": "50",
      "station": {
        "name": "Konya (Meram), Turkey",
        "time": "2023-06-07T03:00:00+09:00"
      }
    },
    {
      "lat": 61.4991,
      "lon": 23.80221,
      "uid": 4919,
      "aqi": "22",
      "station": {
        "name": "Kaleva, Tampere, Finland",
        "time": "2023-06-07T03:00:00+09:00"
      }
    },
    {
      "lat": -33.857194,
      "lon": 18.725778,
      "uid": 14070,
      "aqi": "181",
      "station": {
        "name": "Wallacedene-NAQI, City of Cape Town, South Africa",
        "time": "2023-06-07T02:00:00+09:00"
      }
    },
    {
      "lat": 12.88925,
      "lon": 74.853,
      "uid": 13718,
      "aqi": "33",
      "station": {
        "name": "Kadri, Mangalore, India",
        "time": "2023-06-07T02:30:00+09:00"
      }
    },
    {
      "lat": 26.63086,
      "lon": 84.90051,
      "uid": 13716,
      "aqi": "206",
      "station": {
        "name": "Gandak Colony, Motihari, India",
        "time": "2023-06-07T03:30:00+09:00"
      }
    },
    {
      "lat": -41.399169537038,
      "lon": -72.899522781372,
      "uid": 10697,
      "aqi": "122",
      "station": {
        "name": "Alerce, Chile",
        "time": "2023-06-07T02:00:00+09:00"
      }
    },
    {
      "lat": 40.164576,
      "lon": -105.100856,
      "uid": 6325,
      "aqi": "59",
      "station": {
        "name": "Longmont - Municipal, Colorado, USA",
        "time": "2023-06-07T02:00:00+09:00"
      }
    },
    {
      "lat": 5.54,
      "lon": -73.632004,
      "uid": -373075,
      "aqi": "13",
      "station": {
        "name": "Asoalfra Raquira 1 9d5190",
        "time": "2023-06-07T04:04:13+09:00"
      }
    },
    {
      "lat": -44.94857127,
      "lon": 168.84573717,
      "uid": 11973,
      "aqi": "56",
      "station": {
        "name": "Arrowtown, New Zealand",
        "time": "2023-06-07T01:00:00+09:00"
      }
    },
    {
      "lat": -31.8341204,
      "lon": 115.7835905,
      "uid": 6434,
      "aqi": "7",
      "station": {
        "name": "Duncraig",
        "time": "2023-06-07T02:00:00+09:00"
      }
    },
    {
      "lat": 25.3505986,
      "lon": 82.9083074,
      "uid": 8189,
      "aqi": "165",
      "station": {
        "name": "Ardhali Bazar, Varanasi, India",
        "time": "2023-06-07T03:30:00+09:00"
      }
    },
    {
      "lat": 47.7346,
      "lon": -53.237,
      "uid": -354418,
      "aqi": "9",
      "station": {
        "name": "AQSU-E331",
        "time": "2023-06-07T04:01:10+09:00"
      }
    },
    {
      "lat": 47.494318,
      "lon": -111.303317,
      "uid": 7527,
      "aqi": "88",
      "station": {
        "name": "Great Falls Overlook Park, Montana, USA",
        "time": "2023-06-07T03:00:00+09:00"
      }
    },
    {
      "lat": 11.959798,
      "lon": 108.45224,
      "uid": -362689,
      "aqi": "31",
      "station": {
        "name": "AQSEA_VN_025",
        "time": "2023-06-07T04:00:39+09:00"
      }
    },
    {
      "lat": 49.562487,
      "lon": 34.078514,
      "uid": -44728,
      "aqi": "30",
      "station": {
        "name": "Street Pokrovska, 14",
        "time": "2023-06-07T04:03:04+09:00"
      }
    },
    {
      "lat": 30.39,
      "lon": -89.0497,
      "uid": 7515,
      "aqi": "36",
      "station": {
        "name": "Gport Yc, Mississippi, USA",
        "time": "2023-06-07T03:00:00+09:00"
      }
    },
    {
      "lat": 49.82281,
      "lon": -97.06197,
      "uid": -363802,
      "aqi": "71",
      "station": {
        "name": "AQSU-1671",
        "time": "2023-06-07T04:01:37+09:00"
      }
    },
    {
      "lat": 32.36253,
      "lon": -88.27792,
      "uid": 8198,
      "aqi": "36",
      "station": {
        "name": "Ward, Alabama, USA",
        "time": "2023-06-07T03:00:00+09:00"
      }
    },
    {
      "lat": 38.848014,
      "lon": -104.828564,
      "uid": 6316,
      "aqi": "21",
      "station": {
        "name": "Colorado College, Colorado, USA",
        "time": "2023-06-07T02:00:00+09:00"
      }
    },
    {
      "lat": 23.168606,
      "lon": 79.932247,
      "uid": 12427,
      "aqi": "118",
      "station": {
        "name": "Marhatal, Jabalpur, India",
        "time": "2023-06-07T02:30:00+09:00"
      }
    },
    {
      "lat": 46.1749404,
      "lon": 6.0828449,
      "uid": -379405,
      "aqi": "70",
      "station": {
        "name": "Route de Soral",
        "time": "2023-06-07T04:04:20+09:00"
      }
    },
    {
      "lat": 61.31495,
      "lon": 22.13671,
      "uid": 4922,
      "aqi": "10",
      "station": {
        "name": "Kaleva, Harjavalta, Finland",
        "time": "2023-06-07T03:00:00+09:00"
      }
    },
    {
      "lat": 36.7558,
      "lon": 3.039114,
      "uid": 11732,
      "aqi": "46",
      "station": {
        "name": "Algiers US Embassy, Algeria",
        "time": "2023-06-07T03:00:00+09:00"
      }
    },
    {
      "lat": 51.474954,
      "lon": -0.039641,
      "uid": 7956,
      "aqi": "54",
      "station": {
        "name": "Lewisham - New Cross, United Kingdom",
        "time": "2023-06-07T02:00:00+09:00"
      }
    },
    {
      "lat": 46.3731756,
      "lon": -72.5060933,
      "uid": 5432,
      "aqi": "142",
      "station": {
        "name": "Trois-Rivi\u00e8res - secteur du sanctuaire, Quebec, Canada",
        "time": "2023-06-07T02:00:00+09:00"
      }
    },
    {
      "lat": 18.90861,
      "lon": -99.21167,
      "uid": 8529,
      "aqi": "46",
      "station": {
        "name": "Estaci\u00f3n de Monitoreo Cuernavaca Centro, Morelos, Mexico",
        "time": "2023-06-07T03:00:00+09:00"
      }
    },
    {
      "lat": -36.0971,
      "lon": 143.3548,
      "uid": 13785,
      "aqi": "13",
      "station": {
        "name": "North Central CMA Wycheproof",
        "time": "2023-06-06T22:00:00+09:00"
      }
    },
    {
      "lat": 23.078527777778,
      "lon": 113.22277777778,
      "uid": 14500,
      "aqi": "70",
      "station": {
        "name": "\u8354\u6e7e\u82b3\u6751, Guangzhou (\u5e7f\u5dde\u8354\u6e7e\u82b3\u6751)",
        "time": "2023-06-07T03:00:00+09:00"
      }
    },
    {
      "lat": 49.5518875,
      "lon": 17.731222222222,
      "uid": 11708,
      "aqi": "71",
      "station": {
        "name": "Hranice, Olomoucky, Czech Republic",
        "time": "2023-06-06T21:00:00+09:00"
      }
    },
    {
      "lat": 32.6963741,
      "lon": 128.841093,
      "uid": 2267,
      "aqi": "25",
      "station": {
        "name": "Fukuecho, Goto, Nagasaki, Japan (\u4e94\u5cf6\u4e94\u5cf6\u5e02)",
        "time": "2023-06-07T03:00:00+09:00"
      }
    },
    {
      "lat": 45.094807,
      "lon": 24.36937,
      "uid": -230221,
      "aqi": "59",
      "station": {
        "name": "Aleea Teilor",
        "time": "2023-06-07T03:58:37+09:00"
      }
    },
    {
      "lat": -28.470340876399,
      "lon": -71.218828907093,
      "uid": 14741,
      "aqi": "34",
      "station": {
        "name": "Eme M, Chile",
        "time": "2023-06-07T02:00:00+09:00"
      }
    },
    {
      "lat": 40.464650213847,
      "lon": -109.56083543398,
      "uid": 12878,
      "aqi": "37",
      "station": {
        "name": "Vernal #4, Uintah, Utah",
        "time": "2023-06-07T02:00:00+09:00"
      }
    },
    {
      "lat": 47.13,
      "lon": 142.766,
      "uid": -212287,
      "aqi": "18",
      "station": {
        "name": "\u0417\u0435\u043b\u0451\u043d\u0430\u044f \u0443\u043b\u0438\u0446\u0430",
        "time": "2023-06-07T04:02:49+09:00"
      }
    },
    {
      "lat": 41.573734,
      "lon": 120.450372,
      "uid": 4345,
      "aqi": "62",
      "station": {
        "name": "Chaoyang (\u671d\u9633)",
        "time": "2023-06-07T03:00:00+09:00"
      }
    },
    {
      "lat": 21.8004996,
      "lon": 83.8396977,
      "uid": 11427,
      "aqi": "14",
      "station": {
        "name": "GM Office, Brajrajnagar, India",
        "time": "2023-06-07T03:30:00+09:00"
      }
    },
    {
      "lat": 2.883238,
      "lon": 112.019742,
      "uid": 9501,
      "aqi": "41",
      "station": {
        "name": "Mukah, Sarawak, Malaysia",
        "time": "2023-06-07T03:00:00+09:00"
      }
    },
    {
      "lat": 21.613267,
      "lon": 73.010555,
      "uid": 11843,
      "aqi": "-",
      "station": {
        "name": "GIDC, Ankleshwar, India",
        "time": "2023-06-06T11:30:00+09:00"
      }
    },
    {
      "lat": 39.747295201654,
      "lon": 37.013159745625,
      "uid": 8748,
      "aqi": "35",
      "station": {
        "name": "Sivas Istasyonkavsagi, Turkey",
        "time": "2023-06-07T04:00:00+09:00"
      }
    },
    {
      "lat": 32.380816,
      "lon": -111.127157,
      "uid": 5962,
      "aqi": "38",
      "station": {
        "name": "Coachline, Pima County, USA",
        "time": "2023-06-07T03:00:00+09:00"
      }
    },
    {
      "lat": 42.8698,
      "lon": -109.8708,
      "uid": 8890,
      "aqi": "45",
      "station": {
        "name": "Pinedale Gaseous, Wyoming, USA",
        "time": "2023-06-07T03:00:00+09:00"
      }
    },
    {
      "lat": 57.2591972,
      "lon": -111.0385833,
      "uid": 9298,
      "aqi": "18",
      "station": {
        "name": "Wapasu, Alberta, Canada",
        "time": "2023-06-07T03:00:00+09:00"
      }
    },
    {
      "lat": -43.17,
      "lon": 146.925,
      "uid": 3302,
      "aqi": "59",
      "station": {
        "name": "Geeveston",
        "time": "2023-06-07T02:00:00+09:00"
      }
    },
    {
      "lat": -30.749,
      "lon": 121.466,
      "uid": 10147,
      "aqi": "1",
      "station": {
        "name": "Kalgoorlie",
        "time": "2023-06-07T03:00:00+09:00"
      }
    },
    {
      "lat": 50.69325,
      "lon": -116.12148,
      "uid": -219883,
      "aqi": "72",
      "station": {
        "name": "https://wx.edgewater.tech",
        "time": "2023-06-07T04:02:01+09:00"
      }
    },
    {
      "lat": 44.540833333333,
      "lon": 18.673333333333,
      "uid": 9319,
      "aqi": "86",
      "station": {
        "name": "Tuzlanski skver, Bosnia Herzegovina",
        "time": "2023-06-07T02:00:00+09:00"
      }
    },
    {
      "lat": 49.971047,
      "lon": 19.830422,
      "uid": 3401,
      "aqi": "75",
      "station": {
        "name": "Skawina, Ma\u0142opolska, Poland",
        "time": "2023-06-07T03:00:00+09:00"
      }
    },
    {
      "lat": 44.314472,
      "lon": -81.549722,
      "uid": 33,
      "aqi": "175",
      "station": {
        "name": "Tiverton, Ontario, Canada",
        "time": "2023-06-07T04:00:00+09:00"
      }
    },
    {
      "lat": 26.908194444444,
      "lon": -101.427,
      "uid": 9167,
      "aqi": "30",
      "station": {
        "name": "Jurisdicci\u00f3n Sanitaria, Monclova, Coahuila, Mexico",
        "time": "2023-06-06T22:00:00+09:00"
      }
    },
    {
      "lat": 32.38,
      "lon": -104.26222,
      "uid": 6275,
      "aqi": "66",
      "station": {
        "name": "Carlsbad, New Mexico, USA",
        "time": "2023-06-07T01:00:00+09:00"
      }
    },
    {
      "lat": -35.664,
      "lon": -63.766,
      "uid": -197599,
      "aqi": "51",
      "station": {
        "name": "7 - Juan Bautista Justo",
        "time": "2023-06-07T04:02:03+09:00"
      }
    },
    {
      "lat": -26.6917,
      "lon": 153.1038,
      "uid": 5113,
      "aqi": "15",
      "station": {
        "name": "Mountain Creek",
        "time": "2023-06-07T03:00:00+09:00"
      }
    },
    {
      "lat": 42.984,
      "lon": 20.336,
      "uid": -250936,
      "aqi": "73",
      "station": {
        "name": "\u0421\u0432\u0435\u0442\u043e\u0437\u0430\u0440\u0430 \u041c\u0430\u0440\u043a\u043e\u0432\u0438\u045b\u0430",
        "time": "2023-06-07T04:02:36+09:00"
      }
    },
    {
      "lat": 50.245146,
      "lon": 127.528287,
      "uid": 7919,
      "aqi": "55",
      "station": {
        "name": "Heihe (\u9ed1\u6cb3)",
        "time": "2023-06-07T03:00:00+09:00"
      }
    },
    {
      "lat": 56.312,
      "lon": 101.728,
      "uid": -115039,
      "aqi": "1",
      "station": {
        "name": "\u0443\u043b\u0438\u0446\u0430 \u0412\u043e\u0438\u043d\u043e\u0432-\u0418\u043d\u0442\u0435\u0440\u043d\u0430\u0446\u0438\u043e\u043d\u0430\u043b\u0438\u0441\u0442\u043e\u0432",
        "time": "2023-06-07T04:02:53+09:00"
      }
    },
    {
      "lat": 8.9475377,
      "lon": 125.5406234,
      "uid": 9055,
      "aqi": "8",
      "station": {
        "name": "city environment office, Butuan, Philippines",
        "time": "2023-06-07T04:00:00+09:00"
      }
    },
    {
      "lat": 21.613355,
      "lon": 110.296686,
      "uid": 14321,
      "aqi": "63",
      "station": {
        "name": "\u5ec9\u6c5f\u65b0\u5174,  (\u6e5b\u6c5f\u5e02\u5ec9\u6c5f\u65b0\u5174)",
        "time": "2023-06-07T03:00:00+09:00"
      }
    },
    {
      "lat": 49.8,
      "lon": 73.089,
      "uid": -114505,
      "aqi": "73",
      "station": {
        "name": "\u0421\u0438\u0442\u0438\u043c\u043e\u043b",
        "time": "2023-06-07T03:59:06+09:00"
      }
    },
    {
      "lat": 55.34389,
      "lon": -131.65001,
      "uid": -233566,
      "aqi": "9",
      "station": {
        "name": "Front Street",
        "time": "2023-06-07T03:00:00+09:00"
      }
    },
    {
      "lat": -33.0548,
      "lon": 144.154,
      "uid": 12394,
      "aqi": "10",
      "station": {
        "name": "Western LLS Ivanhoe",
        "time": "2023-06-07T02:00:00+09:00"
      }
    },
    {
      "lat": 43.0620958,
      "lon": 141.3543763,
      "uid": 5536,
      "aqi": "63",
      "station": {
        "name": "Sapporo (\u672d\u5e4c)",
        "time": "2023-06-07T03:00:00+09:00"
      }
    },
    {
      "lat": 42.6836392,
      "lon": 141.6914783,
      "uid": 2270,
      "aqi": "55",
      "station": {
        "name": "Numanohata, Tomakomai, Hokkaido Prefecture, Japan (\u6cbc\u30ce\u7aef\u516c\u5712\u82eb\u5c0f\u7267\u5e02)",
        "time": "2023-06-07T03:00:00+09:00"
      }
    },
    {
      "lat": 13.6217753,
      "lon": 123.1948238,
      "uid": 9570,
      "aqi": "24",
      "station": {
        "name": "Penro, Naga City, Philippines",
        "time": "2023-06-07T04:00:00+09:00"
      }
    },
    {
      "lat": 27.103358,
      "lon": 93.679645,
      "uid": 13802,
      "aqi": "-",
      "station": {
        "name": "Naharlagun, Naharlagun, India",
        "time": "2023-06-03T15:30:00+09:00"
      }
    },
    {
      "lat": 41.388931,
      "lon": 33.778023,
      "uid": 4127,
      "aqi": "58",
      "station": {
        "name": "Kastamonu, Turkey",
        "time": "2023-06-07T04:00:00+09:00"
      }
    },
    {
      "lat": 42.4909,
      "lon": 78.3921,
      "uid": -224326,
      "aqi": "5",
      "station": {
        "name": "\u0443\u043b.\u0422\u043e\u043a\u0442\u043e\u0433\u0443\u043b\u0430",
        "time": "2023-06-07T03:59:14+09:00"
      }
    },
    {
      "lat": -34.1747,
      "lon": 142.2008,
      "uid": 10723,
      "aqi": "10",
      "station": {
        "name": "Western LLS Buronga",
        "time": "2023-06-07T01:00:00+09:00"
      }
    },
    {
      "lat": -25.835814,
      "lon": 25.614534,
      "uid": 11713,
      "aqi": "139",
      "station": {
        "name": "Mafikeng-NAQI, Ngaka Modiri Molema, South Africa",
        "time": "2023-06-07T03:00:00+09:00"
      }
    },
    {
      "lat": 31.4797,
      "lon": 92.0506,
      "uid": 9885,
      "aqi": "42",
      "station": {
        "name": "\u90a3\u66f2\u4f1a\u8bae\u4e2d\u5fc3, Nagqu (\u90a3\u66f2\u5730\u533a\u90a3\u66f2\u4f1a\u8bae\u4e2d\u5fc3)",
        "time": "2023-06-07T03:00:00+09:00"
      }
    },
    {
      "lat": 21.543486,
      "lon": 39.17299,
      "uid": 12943,
      "aqi": "61",
      "station": {
        "name": "Jeddah US Embassy, Saudi Arabia",
        "time": "2023-06-07T03:00:00+09:00"
      }
    },
    {
      "lat": 37.28342,
      "lon": -79.88452,
      "uid": 5356,
      "aqi": "86",
      "station": {
        "name": "Herman L. Horn Elementary School, Roanoke, USA",
        "time": "2023-06-07T02:00:00+09:00"
      }
    },
    {
      "lat": 63.74,
      "lon": 34.316,
      "uid": -236305,
      "aqi": "97",
      "station": {
        "name": "\u0413\u0440\u0430\u0436\u0434\u0430\u043d\u0441\u043a\u0430\u044f \u0443\u043b\u0438\u0446\u0430",
        "time": "2023-06-07T04:03:04+09:00"
      }
    },
    {
      "lat": 34.9818894,
      "lon": 137.1630465,
      "uid": 2525,
      "aqi": "57",
      "station": {
        "name": "Kamodacho, Okazaki, Aichi, Japan (\u9d28\u7530\u5ca1\u5d0e\u5e02)",
        "time": "2023-06-07T03:00:00+09:00"
      }
    },
    {
      "lat": 30.72358333,
      "lon": 103.97275,
      "uid": 1360,
      "aqi": "124",
      "station": {
        "name": "Jinquan lianghe, Chengdu (\u6210\u90fd\u91d1\u6cc9\u4e24\u6cb3)",
        "time": "2023-06-07T03:00:00+09:00"
      }
    },
    {
      "lat": 42.05132,
      "lon": 0.7295987,
      "uid": 11760,
      "aqi": "50",
      "station": {
        "name": "Montsec, Catalunya, Spain",
        "time": "2023-06-07T03:00:00+09:00"
      }
    },
    {
      "lat": 37.254970040987,
      "lon": -1.7817306208919,
      "uid": 8435,
      "aqi": "42",
      "station": {
        "name": "Palomares, Cuevas Del Almanzora, Spain",
        "time": "2023-06-07T02:00:00+09:00"
      }
    },
    {
      "lat": 42.2917069,
      "lon": -85.5872286,
      "uid": 5329,
      "aqi": "151",
      "station": {
        "name": "Kalamazoo, Michigan, USA",
        "time": "2023-06-07T04:00:00+09:00"
      }
    },
    {
      "lat": 0.3807,
      "lon": 32.57656,
      "uid": -204004,
      "aqi": "188",
      "station": {
        "name": "aq_g510",
        "time": "2023-06-07T02:00:00+09:00"
      }
    },
    {
      "lat": 16.061944,
      "lon": -16.423333,
      "uid": -399550,
      "aqi": "6",
      "station": {
        "name": "UGB-PSU",
        "time": "2023-06-07T02:00:00+09:00"
      }
    },
    {
      "lat": -34.3346,
      "lon": 146.0961,
      "uid": -110893,
      "aqi": "8",
      "station": {
        "name": "Bob Irvin Road",
        "time": "2023-06-07T04:01:06+09:00"
      }
    },
    {
      "lat": 41.17046,
      "lon": 29.56336,
      "uid": 8158,
      "aqi": "54",
      "station": {
        "name": "Istanbul Sile, Turkey",
        "time": "2023-06-07T04:00:00+09:00"
      }
    },
    {
      "lat": 52.058304,
      "lon": -9.504865,
      "uid": 14652,
      "aqi": "36",
      "station": {
        "name": "Killarney Anam Arts and Cultural Centre, Co. Kerry, Ireland",
        "time": "2023-06-07T02:00:00+09:00"
      }
    },
    {
      "lat": 46.8505,
      "lon": -111.987164,
      "uid": 7594,
      "aqi": "86",
      "station": {
        "name": "Ncore, Montana, USA",
        "time": "2023-06-07T02:00:00+09:00"
      }
    },
    {
      "lat": 29.955999,
      "lon": 31.268999,
      "uid": -373081,
      "aqi": "-",
      "station": {
        "name": "CaiRRo 147464",
        "time": "2023-06-07T04:03:43+09:00"
      }
    },
    {
      "lat": -31.4837,
      "lon": 145.8293,
      "uid": 12390,
      "aqi": "4",
      "station": {
        "name": "Western LLS Cobar",
        "time": "2023-06-07T02:00:00+09:00"
      }
    },
    {
      "lat": 37.938413,
      "lon": 124.645669,
      "uid": 4544,
      "aqi": "58",
      "station": {
        "name": "Baekryeongdo, Incheon, South Korea (\ubc31\ub839\ub3c4 \uc778\ucc9c)",
        "time": "2023-06-07T03:00:00+09:00"
      }
    },
    {
      "lat": 20.973272222222,
      "lon": -89.624811111111,
      "uid": 11908,
      "aqi": "-",
      "station": {
        "name": "SDS01, M\u00e9rida, Yucat\u00e1n, Mexico",
        "time": "2023-06-06T20:00:00+09:00"
      }
    },
    {
      "lat": 35.6322,
      "lon": -83.9422,
      "uid": 7537,
      "aqi": "78",
      "station": {
        "name": "Look Rock - GSMNP, Tennessee, USA",
        "time": "2023-06-07T04:00:00+09:00"
      }
    },
    {
      "lat": 45.337861,
      "lon": -80.038167,
      "uid": 24,
      "aqi": "162",
      "station": {
        "name": "Parry Sound, Ontario, Canada",
        "time": "2023-06-07T04:00:00+09:00"
      }
    },
    {
      "lat": 36.61397476196859,
      "lon": -121.91984779449454,
      "uid": -398938,
      "aqi": "54",
      "station": {
        "name": "Pacific Grove Middle School",
        "time": "2023-06-07T02:00:00+09:00"
      }
    },
    {
      "lat": -32.946,
      "lon": -60.652,
      "uid": -212941,
      "aqi": "31",
      "station": {
        "name": "San Luis",
        "time": "2023-06-07T04:03:28+09:00"
      }
    },
    {
      "lat": 31.62,
      "lon": 74.876512,
      "uid": 11321,
      "aqi": "87",
      "station": {
        "name": "Golden Temple, Amritsar, India",
        "time": "2023-06-07T03:30:00+09:00"
      }
    },
    {
      "lat": 47.037057,
      "lon": 28.771114,
      "uid": -110260,
      "aqi": "33",
      "station": {
        "name": "Alba-Iulia Street",
        "time": "2023-06-07T03:51:52+09:00"
      }
    },
    {
      "lat": 36.914883,
      "lon": 30.700425,
      "uid": 4045,
      "aqi": "60",
      "station": {
        "name": "Antalya, Turkey",
        "time": "2023-06-07T04:00:00+09:00"
      }
    },
    {
      "lat": 47.47228,
      "lon": 101.46247,
      "uid": -369397,
      "aqi": "60",
      "station": {
        "name": "Arkhangai",
        "time": "2023-06-07T04:00:32+09:00"
      }
    },
    {
      "lat": 39.55,
      "lon": 8.786,
      "uid": -141814,
      "aqi": "13",
      "station": {
        "name": "Via Rinascita",
        "time": "2023-06-07T04:02:48+09:00"
      }
    },
    {
      "lat": 55.068,
      "lon": 73.284,
      "uid": -373414,
      "aqi": "170",
      "station": {
        "name": "\u043f\u0440\u043e\u0441\u043f\u0435\u043a\u0442 \u0413\u0443\u0431\u043a\u0438\u043d\u0430",
        "time": "2023-06-07T04:02:59+09:00"
      }
    },
    {
      "lat": 46.396,
      "lon": 48.102,
      "uid": -358447,
      "aqi": "8",
      "station": {
        "name": "1-\u0439 \u0422\u0440\u0443\u0434\u043e\u0432\u043e\u0439 \u043f\u0435\u0440\u0435\u0443\u043b\u043e\u043a",
        "time": "2023-06-07T04:03:58+09:00"
      }
    },
    {
      "lat": 37.518636,
      "lon": 130.7970965,
      "uid": 5376,
      "aqi": "80",
      "station": {
        "name": "Taeha-ri, Gyeongbuk, South Korea (\ud0dc\ud558\ub9ac \uacbd\ubd81)",
        "time": "2023-06-07T03:00:00+09:00"
      }
    },
    {
      "lat": 31.5072,
      "lon": 104.7283,
      "uid": 3601,
      "aqi": "80",
      "station": {
        "name": "No.3 water company, Mianyang (\u7ef5\u9633\u4e09\u6c34\u5382)",
        "time": "2023-06-07T03:00:00+09:00"
      }
    },
    {
      "lat": 67.97328,
      "lon": 24.11559,
      "uid": 4929,
      "aqi": "27",
      "station": {
        "name": "Sammaltunturi, Muonio, Finland",
        "time": "2023-06-07T03:00:00+09:00"
      }
    },
    {
      "lat": 47.0558,
      "lon": -0.883553,
      "uid": 4998,
      "aqi": "60",
      "station": {
        "name": "Saint-Exupery, Cholet, Loire, France",
        "time": "2023-06-07T03:00:00+09:00"
      }
    },
    {
      "lat": 35.62088,
      "lon": 129.35796,
      "uid": 3997,
      "aqi": "104",
      "station": {
        "name": "Nongso-dong, Buk-gu, Ulsan, South Korea (\ub18d\uc18c\ub3d9 \uc6b8\uc0b0)",
        "time": "2023-06-07T03:00:00+09:00"
      }
    },
    {
      "lat": 45.479055555556,
      "lon": 16.780666666667,
      "uid": 5158,
      "aqi": "60",
      "station": {
        "name": "Kutina-1, Croatia",
        "time": "2023-06-07T01:00:00+09:00"
      }
    },
    {
      "lat": 24.026777777778,
      "lon": -104.692975,
      "uid": 10163,
      "aqi": "53",
      "station": {
        "name": "SRNyMA, Durango, Mexico",
        "time": "2023-06-07T03:00:00+09:00"
      }
    },
    {
      "lat": 44.9536,
      "lon": -93.2581,
      "uid": 7344,
      "aqi": "117",
      "station": {
        "name": "Minneapolis-Phillips, Minnesota, USA",
        "time": "2023-06-07T03:00:00+09:00"
      }
    },
    {
      "lat": 46.8511,
      "lon": -95.8467,
      "uid": 7338,
      "aqi": "87",
      "station": {
        "name": "Detroit Lakes, Minnesota, USA",
        "time": "2023-06-07T03:00:00+09:00"
      }
    },
    {
      "lat": 45.218,
      "lon": 36.708,
      "uid": -356638,
      "aqi": "11",
      "station": {
        "name": "\u0443\u043b\u0438\u0446\u0430 \u041b\u0435\u0431\u0435\u0434\u0435\u0432\u0430",
        "time": "2023-06-07T04:02:33+09:00"
      }
    },
    {
      "lat": -29.138507,
      "lon": 26.241952,
      "uid": 11731,
      "aqi": "221",
      "station": {
        "name": "Pelonomi-NAQI, Mangaung  Metro, South Africa",
        "time": "2023-06-07T02:00:00+09:00"
      }
    },
    {
      "lat": 23.0706,
      "lon": 112.427,
      "uid": 806,
      "aqi": "91",
      "station": {
        "name": "Mugangzi station, Zhaoqing (\u8087\u5e86\u7766\u5c97\u5b50\u7ad9)",
        "time": "2023-06-07T03:00:00+09:00"
      }
    },
    {
      "lat": 43.1594,
      "lon": 124.3711,
      "uid": 7282,
      "aqi": "53",
      "station": {
        "name": "Y\u012b sh\u0101ngch\u01ceng, Siping (\u56db\u5e73\u4e00\u5546\u573a)",
        "time": "2023-06-07T03:00:00+09:00"
      }
    },
    {
      "lat": 35.0308,
      "lon": 110.9678,
      "uid": 3533,
      "aqi": "81",
      "station": {
        "name": "Regional Technical School, Yuncheng (\u8fd0\u57ce\u5730\u533a\u6280\u6821)",
        "time": "2023-06-07T03:00:00+09:00"
      }
    },
    {
      "lat": 40.588931,
      "lon": 23.031681,
      "uid": 12411,
      "aqi": "40",
      "station": {
        "name": "Panorama, Greece",
        "time": "2023-06-07T01:00:00+09:00"
      }
    },
    {
      "lat": 46.757534,
      "lon": 33.369862,
      "uid": -130741,
      "aqi": "11",
      "station": {
        "name": "Street Paryzkoi komuny",
        "time": "2023-06-07T04:02:19+09:00"
      }
    },
    {
      "lat": 57.792936,
      "lon": -152.39839,
      "uid": -233749,
      "aqi": "-",
      "station": {
        "name": "Egan Way",
        "time": "2023-06-07T03:00:00+09:00"
      }
    },
    {
      "lat": -4.9655024,
      "lon": 119.69284341781,
      "uid": 13841,
      "aqi": "69",
      "station": {
        "name": "Maros, Indonesia",
        "time": "2023-06-06T23:00:00+09:00"
      }
    },
    {
      "lat": 18.19170811,
      "lon": 98.61119994,
      "uid": -239011,
      "aqi": "56",
      "station": {
        "name": "\u0e2a\u0e2a\u0e2d.\u0e2e\u0e2d\u0e14 \u0e15.\u0e2b\u0e32\u0e07\u0e14\u0e07 \u0e2d.\u0e2e\u0e2d\u0e14 \u0e08.\u0e40\u0e0a\u0e35\u0e22\u0e07\u0e43\u0e2b\u0e21\u0e48",
        "time": "2023-06-07T03:00:00+09:00"
      }
    },
    {
      "lat": 34.7337339,
      "lon": 135.4063757,
      "uid": 2028,
      "aqi": "68",
      "station": {
        "name": "Amagasaki, Hyogo Prefecture, Japan (\u56fd\u8a2d\u5c3c\u5d0e\u81ea\u52d5\u8eca\u4ea4\u901a\u74b0\u5883\u6e2c\u5b9a\u6240\u5c3c\u5d0e\u5e02)",
        "time": "2023-06-07T03:00:00+09:00"
      }
    },
    {
      "lat": 53.0175275,
      "lon": 11.1432543,
      "uid": 6218,
      "aqi": "47",
      "station": {
        "name": "Wendland, Germany",
        "time": "2023-06-07T03:00:00+09:00"
      }
    },
    {
      "lat": 53.74878,
      "lon": -0.341222,
      "uid": 3181,
      "aqi": "32",
      "station": {
        "name": "Hull Freetown, United Kingdom",
        "time": "2023-06-07T02:00:00+09:00"
      }
    },
    {
      "lat": 56.7328,
      "lon": -111.3902,
      "uid": 5489,
      "aqi": "12",
      "station": {
        "name": "Fort McMurray Athabasca Valley, Alberta, Canada",
        "time": "2023-06-07T03:00:00+09:00"
      }
    },
    {
      "lat": 39.352,
      "lon": 20.286,
      "uid": -145474,
      "aqi": "35",
      "station": {
        "name": "Arillas",
        "time": "2023-06-07T02:55:22+09:00"
      }
    },
    {
      "lat": -30.29828,
      "lon": 153.11811,
      "uid": 12534,
      "aqi": "8",
      "station": {
        "name": "Bushfire Monitoring Coffs Harbour",
        "time": "2023-06-07T02:00:00+09:00"
      }
    },
    {
      "lat": -0.14824555,
      "lon": 109.4025306108,
      "uid": 13655,
      "aqi": "53",
      "station": {
        "name": "Supadio, Indonesia",
        "time": "2023-06-06T23:00:00+09:00"
      }
    },
    {
      "lat": 38.07657,
      "lon": -78.50397,
      "uid": 5339,
      "aqi": "160",
      "station": {
        "name": "Albemarle High School, Charlottesville, USA",
        "time": "2023-06-07T02:00:00+09:00"
      }
    },
    {
      "lat": 50.99463,
      "lon": -118.17267,
      "uid": -225658,
      "aqi": "42",
      "station": {
        "name": "AQSU-Powerhouse Rd",
        "time": "2023-06-07T04:01:10+09:00"
      }
    },
    {
      "lat": -34.791288,
      "lon": 138.49786,
      "uid": 6447,
      "aqi": "30",
      "station": {
        "name": "North Western Adelaide Le Fevre 2",
        "time": "2023-06-07T02:30:00+09:00"
      }
    },
    {
      "lat": -23.5208,
      "lon": 148.165,
      "uid": 14869,
      "aqi": "18",
      "station": {
        "name": "Emerald",
        "time": "2023-06-07T03:00:00+09:00"
      }
    },
    {
      "lat": 48.162069444444,
      "lon": 16.525613888889,
      "uid": 2831,
      "aqi": "50",
      "station": {
        "name": "Lobau Grundwasserwerk, Austria",
        "time": "2023-06-07T02:00:00+09:00"
      }
    },
    {
      "lat": 49.868888888889,
      "lon": 2.2398055555558,
      "uid": 5168,
      "aqi": "61",
      "station": {
        "name": "Salouel, Picardie, France",
        "time": "2023-06-07T02:00:00+09:00"
      }
    },
    {
      "lat": 21.004929,
      "lon": 107.27154,
      "uid": -233302,
      "aqi": "66",
      "station": {
        "name": "AQSEA_VN_017",
        "time": "2023-06-07T04:00:36+09:00"
      }
    },
    {
      "lat": 34.9197777778,
      "lon": 127.6944722222,
      "uid": 14000,
      "aqi": "122",
      "station": {
        "name": "Gwangyang Jungma, Jeonnam, South Korea (\uad11\uc591 \uc911\ub9c8 \uc804\ub0a8)",
        "time": "2023-06-07T03:00:00+09:00"
      }
    },
    {
      "lat": 24.6736,
      "lon": 102.5967,
      "uid": 14528,
      "aqi": "161",
      "station": {
        "name": "\u664b\u5b81\u533a\u751f\u6001\u73af\u5883\u5206\u5c40, Kunming (\u6606\u660e\u664b\u5b81\u533a\u751f\u6001\u73af\u5883\u5206\u5c40)",
        "time": "2023-06-07T03:00:00+09:00"
      }
    },
    {
      "lat": 22.969611,
      "lon": 72.6435,
      "uid": 12451,
      "aqi": "119",
      "station": {
        "name": "Phase-4 GIDC, Vatva, India",
        "time": "2023-06-07T03:30:00+09:00"
      }
    },
    {
      "lat": 22.3221386,
      "lon": 104.1214227,
      "uid": 13250,
      "aqi": "-",
      "station": {
        "name": "L\u00e0o Cai/KCN TALOONG1, Vietnam",
        "time": "2023-06-03T03:00:00+09:00"
      }
    },
    {
      "lat": 32.6319,
      "lon": 116.8306,
      "uid": 7101,
      "aqi": "117",
      "station": {
        "name": "Bagongshan District Government, Huainan (\u6dee\u5357\u516b\u516c\u5c71\u533a\u653f\u5e9c)",
        "time": "2023-06-07T03:00:00+09:00"
      }
    },
    {
      "lat": 11.1745536,
      "lon": -60.7600744,
      "uid": 12777,
      "aqi": "-",
      "station": {
        "name": "Signal Hill, Trinidad and Tobago",
        "time": "2023-06-06T09:00:00+09:00"
      }
    },
    {
      "lat": 21.478177777778,
      "lon": -104.86774166667,
      "uid": 9165,
      "aqi": "49",
      "station": {
        "name": "Tecnol\u00f3gico de Tepic, Tepic, Nayarit, Mexico",
        "time": "2023-06-07T01:00:00+09:00"
      }
    },
    {
      "lat": 6.147431,
      "lon": 102.249236,
      "uid": 9556,
      "aqi": "80",
      "station": {
        "name": "Kota Bharu, Kelantan, Malaysia",
        "time": "2023-06-07T03:00:00+09:00"
      }
    },
    {
      "lat": 55.606388092041,
      "lon": 13.001963615418,
      "uid": 7866,
      "aqi": "39",
      "station": {
        "name": "Malm\u00f6 R\u00e5dhuset, Sweden",
        "time": "2023-06-07T02:00:00+09:00"
      }
    },
    {
      "lat": 45.224278,
      "lon": -78.932944,
      "uid": 7,
      "aqi": "179",
      "station": {
        "name": "Dorset, Ontario, Canada",
        "time": "2023-06-07T04:00:00+09:00"
      }
    },
    {
      "lat": 31.87952,
      "lon": -110.99644,
      "uid": 5958,
      "aqi": "45",
      "station": {
        "name": "Green Valley, Pima County, USA",
        "time": "2023-06-07T03:00:00+09:00"
      }
    },
    {
      "lat": 40.769,
      "lon": 73.293,
      "uid": -347329,
      "aqi": "500",
      "station": {
        "name": "\u0421\u041a \u0423\u0437\u0433\u0435\u043d",
        "time": "2023-06-07T03:59:33+09:00"
      }
    },
    {
      "lat": 42.5175,
      "lon": 72.2466,
      "uid": -347347,
      "aqi": "5",
      "station": {
        "name": "\u0414\u043e\u0441\u043a\u0440\u0435\u0434\u043e\u0431\u0430\u043d\u043a \u0422\u0430\u043b\u0430\u0441",
        "time": "2023-06-07T03:59:06+09:00"
      }
    },
    {
      "lat": 45.226,
      "lon": 37.908,
      "uid": -355756,
      "aqi": "20",
      "station": {
        "name": "\u0421\u0432\u043e\u0431\u043e\u0434\u043d\u044b\u0439 \u043f\u0435\u0440\u0435\u0443\u043b\u043e\u043a",
        "time": "2023-06-07T04:03:14+09:00"
      }
    },
    {
      "lat": 17.528544,
      "lon": 78.286195,
      "uid": 14140,
      "aqi": "141",
      "station": {
        "name": "Ramachandrapuram, Hyderabad, India",
        "time": "2023-06-07T03:30:00+09:00"
      }
    },
    {
      "lat": -35.406582744695,
      "lon": -71.633396474869,
      "uid": 424,
      "aqi": "155",
      "station": {
        "name": "Universidad de Talca, Chile",
        "time": "2023-06-07T02:00:00+09:00"
      }
    },
    {
      "lat": 61.15304,
      "lon": 28.81014,
      "uid": 4949,
      "aqi": "33",
      "station": {
        "name": "Teppanala, Imatra, Finland",
        "time": "2023-06-07T03:00:00+09:00"
      }
    },
    {
      "lat": 50.064615,
      "lon": 31.451201,
      "uid": -113752,
      "aqi": "173",
      "station": {
        "name": "Bohdana Khmelnytskoho Street",
        "time": "2023-06-07T03:57:00+09:00"
      }
    },
    {
      "lat": 42.6310777,
      "lon": 23.2376786,
      "uid": 8087,
      "aqi": "61",
      "station": {
        "name": "Kopitoto, Sofia, Bulgaria (Ko\u043f\u0438\u0442\u043e\u0442\u043e, \u0421\u0442\u043e\u043b\u0438\u0447\u043d\u0430)",
        "time": "2023-06-07T02:00:00+09:00"
      }
    },
    {
      "lat": 44.324175,
      "lon": 23.797,
      "uid": -185221,
      "aqi": "56",
      "station": {
        "name": "Strada Licurici",
        "time": "2023-06-07T03:56:51+09:00"
      }
    },
    {
      "lat": 43.302295,
      "lon": -8.505986,
      "uid": 14185,
      "aqi": "68",
      "station": {
        "name": "Centro c\u00edvico, Galicia, Spain",
        "time": "2023-06-07T01:00:00+09:00"
      }
    },
    {
      "lat": 12.304907,
      "lon": -1.497184,
      "uid": 13844,
      "aqi": "123",
      "station": {
        "name": "Ouagadougou US Embassy, Burkina Faso",
        "time": "2023-06-07T03:00:00+09:00"
      }
    },
    {
      "lat": 43.362055748944,
      "lon": -3.0227822073212,
      "uid": 6737,
      "aqi": "57",
      "station": {
        "name": "Algorta, Getxo, Pa\u00eds Vasco, Spain",
        "time": "2023-06-07T00:00:00+09:00"
      }
    },
    {
      "lat": 50.606944,
      "lon": 12.213889,
      "uid": 10886,
      "aqi": "57",
      "station": {
        "name": "Brockau, Germany",
        "time": "2023-06-07T01:00:00+09:00"
      }
    },
    {
      "lat": 36.48785,
      "lon": -117.87104,
      "uid": 8349,
      "aqi": "34",
      "station": {
        "name": "Keeler-Cerro Gordo Road, Inyo, California",
        "time": "2023-06-07T02:00:00+09:00"
      }
    },
    {
      "lat": 40.40307,
      "lon": 26.77063,
      "uid": 8149,
      "aqi": "55",
      "station": {
        "name": "Canakkale Lapseki, Turkey",
        "time": "2023-06-07T04:00:00+09:00"
      }
    },
    {
      "lat": 27.7044,
      "lon": 111.9892,
      "uid": 7836,
      "aqi": "102",
      "station": {
        "name": "City government, Loudi (\u5a04\u5e95\u5e02\u653f\u5e9c)",
        "time": "2023-06-07T03:00:00+09:00"
      }
    },
    {
      "lat": 37.521754902431,
      "lon": 42.454870799663,
      "uid": 4092,
      "aqi": "53",
      "station": {
        "name": "Sirnak, Turkey",
        "time": "2023-06-07T04:00:00+09:00"
      }
    },
    {
      "lat": 35.5365,
      "lon": -108.7272,
      "uid": 13185,
      "aqi": "-",
      "station": {
        "name": "Gallup, USA",
        "time": "2023-06-06T16:00:00+09:00"
      }
    },
    {
      "lat": 53.6907189,
      "lon": 88.0466761289,
      "uid": -209518,
      "aqi": "58",
      "station": {
        "name": "\u0412\u043e\u043a\u0437\u0430\u043b\u044c\u043d\u0430\u044f \u0443\u043b\u0438\u0446\u0430",
        "time": "2023-06-07T04:03:06+09:00"
      }
    },
    {
      "lat": 55.80128539968,
      "lon": 49.27441388369,
      "uid": -373306,
      "aqi": "18",
      "station": {
        "name": "Dorozhnaya Street",
        "time": "2023-06-07T03:59:42+09:00"
      }
    },
    {
      "lat": 47.934,
      "lon": 33.43,
      "uid": -73663,
      "aqi": "58",
      "station": {
        "name": "Vechirnii Boulevard",
        "time": "2023-06-07T04:02:12+09:00"
      }
    },
    {
      "lat": 60.795826,
      "lon": -115.80477,
      "uid": -248539,
      "aqi": "139",
      "station": {
        "name": "AQSU-MironHayRiver",
        "time": "2023-06-07T04:00:44+09:00"
      }
    },
    {
      "lat": -41.53,
      "lon": 146.835,
      "uid": 3283,
      "aqi": "80",
      "station": {
        "name": "Westbury",
        "time": "2023-06-07T02:00:00+09:00"
      }
    },
    {
      "lat": 37.75257,
      "lon": 27.41141,
      "uid": 14806,
      "aqi": "119",
      "station": {
        "name": "S\u00f6ke, Turkey",
        "time": "2023-06-07T04:00:00+09:00"
      }
    },
    {
      "lat": 20.98536,
      "lon": 106.0994,
      "uid": -371242,
      "aqi": "215",
      "station": {
        "name": "V\u0103n Lam, Hung Yen, Vietnam (purple air project, Vietnam)",
        "time": "2023-06-07T03:00:00+09:00"
      }
    },
    {
      "lat": 19.167872,
      "lon": 100.284061,
      "uid": -132649,
      "aqi": "126",
      "station": {
        "name": "\u0e2b\u0e19\u0e48\u0e27\u0e22\u0e1b\u0e49\u0e2d\u0e07\u0e01\u0e31\u0e19\u0e23\u0e31\u0e01\u0e29\u0e32\u0e1b\u0e48\u0e32\u0e17\u0e35\u0e48\u0e1e\u0e22.2 \u0e19\u0e32\u0e1b\u0e23\u0e31\u0e07 \u0e2d.\u0e1b\u0e07 \u0e08.\u0e1e\u0e30\u0e40\u0e22\u0e32",
        "time": "2023-06-07T03:00:00+09:00"
      }
    },
    {
      "lat": 32.777539,
      "lon": -117.073318,
      "uid": -399883,
      "aqi": "45",
      "station": {
        "name": "SDSU1",
        "time": "2023-06-07T02:00:00+09:00"
      }
    },
    {
      "lat": 13.936804,
      "lon": 121.78583,
      "uid": -398935,
      "aqi": "168",
      "station": {
        "name": "Pagbilao 2",
        "time": "2023-06-07T02:00:00+09:00"
      }
    },
    {
      "lat": 40.814189,
      "lon": 140.733963,
      "uid": 1874,
      "aqi": "57",
      "station": {
        "name": "Kanazawa, Aomori, Aomori, Japan (\u7532\u7530\u5c0f\u5b66\u6821\u9752\u68ee\u5e02)",
        "time": "2023-06-07T03:00:00+09:00"
      }
    },
    {
      "lat": 56.164011418455,
      "lon": 15.58894080136,
      "uid": 13991,
      "aqi": "7",
      "station": {
        "name": "Karlskrona N Smedjegatan \u00d6 K\u00f6pmansgatan, Sweden",
        "time": "2023-06-07T02:00:00+09:00"
      }
    },
    {
      "lat": 53.133888888889,
      "lon": 17.995555555556,
      "uid": 6524,
      "aqi": "46",
      "station": {
        "name": "Bydgoszcz-Warszawska, Poland",
        "time": "2023-06-07T03:00:00+09:00"
      }
    },
    {
      "lat": 44.900296425952,
      "lon": -0.515835418264,
      "uid": 5059,
      "aqi": "53",
      "station": {
        "name": "Bassens, Aquitaine, France",
        "time": "2023-06-07T03:00:00+09:00"
      }
    },
    {
      "lat": 57.144555,
      "lon": -2.106472,
      "uid": 5967,
      "aqi": "20",
      "station": {
        "name": "Aberdeen Union Street Roadside, United Kingdom",
        "time": "2023-06-07T01:00:00+09:00"
      }
    },
    {
      "lat": 47.048537,
      "lon": -109.455315,
      "uid": 7526,
      "aqi": "30",
      "station": {
        "name": "Lewistown, Montana, USA",
        "time": "2023-06-07T03:00:00+09:00"
      }
    },
    {
      "lat": 27.6506,
      "lon": 106.9231,
      "uid": 4321,
      "aqi": "153",
      "station": {
        "name": "Zhoushui  Bridge, Zunyi (\u9075\u4e49\u821f\u6c34\u6865)",
        "time": "2023-06-07T03:00:00+09:00"
      }
    },
    {
      "lat": 28.572714,
      "lon": 76.933433,
      "uid": 10120,
      "aqi": "956",
      "station": {
        "name": "Bramprakash Ayurvedic Hospital, Najafgarh, Delhi, Delhi, India",
        "time": "2023-06-07T03:30:00+09:00"
      }
    },
    {
      "lat": 64.8458,
      "lon": -147.72727,
      "uid": 7611,
      "aqi": "21",
      "station": {
        "name": "FNSB NCORE, Alaska",
        "time": "2023-06-07T02:00:00+09:00"
      }
    },
    {
      "lat": 53.336,
      "lon": 83.69,
      "uid": -349525,
      "aqi": "64",
      "station": {
        "name": "\u0412\u0437\u043b\u0451\u0442\u043d\u0430\u044f \u0443\u043b\u0438\u0446\u0430",
        "time": "2023-06-07T04:01:05+09:00"
      }
    },
    {
      "lat": 47.91,
      "lon": 67.5296,
      "uid": -365551,
      "aqi": "74",
      "station": {
        "name": "\u0421\u0430\u0442\u043f\u0430\u0435\u0432",
        "time": "2023-06-07T03:59:08+09:00"
      }
    },
    {
      "lat": 17.932938,
      "lon": 106.49662,
      "uid": 14640,
      "aqi": "13",
      "station": {
        "name": "Qu\u1ea3ng B\u00ecnh/Khu kinh t\u1ebf H\u00f2n La, Vietnam",
        "time": "2023-06-07T03:00:00+09:00"
      }
    },
    {
      "lat": 34.694,
      "lon": 33.088,
      "uid": -361546,
      "aqi": "88",
      "station": {
        "name": "Amerikanas",
        "time": "2023-06-07T04:02:17+09:00"
      }
    },